{
  "type": "FeatureCollection",
  "generator": "overpass-turbo",
  "copyright": "The data included in this document is from www.openstreetmap.org. The data is made available under ODbL.",
  "timestamp": "2025-08-19T18:56:46Z",
  "features": [
    {
      "type": "Feature",
      "properties": {
        "@id": "node/64638677",
        "amenity": "school",
        "name": "Sanghamitta College"
      },
      "geometry": {
        "type": "Point",
        "coordinates": [
          80.2121695,
          6.0471249
        ]
      },
      "id": "node/64638677"
    },
    {
      "type": "Feature",
      "properties": {
        "@id": "node/64638681",
        "amenity": "school",
        "name": "Mahinda College",
        "opening_hours": "Mo-Fr 07:30-13:30",
        "url": "http://www.mahindacollege.lk",
        "wikidata": "Q16746736",
        "wikipedia": "en:Mahinda College"
      },
      "geometry": {
        "type": "Point",
        "coordinates": [
          80.2151194,
          6.0494692
        ]
      },
      "id": "node/64638681"
    },
    {
      "type": "Feature",
      "properties": {
        "@id": "node/77844735",
        "amenity": "school",
        "created_by": "JOSM",
        "name": "Ceylinco Sussex College - Bandarawella"
      },
      "geometry": {
        "type": "Point",
        "coordinates": [
          80.97719,
          6.8390855
        ]
      },
      "id": "node/77844735"
    },
    {
      "type": "Feature",
      "properties": {
        "@id": "node/84048507",
        "amenity": "place_of_worship",
        "created_by": "JOSM",
        "name": "Tuwakugala Temple",
        "religion": "buddhist"
      },
      "geometry": {
        "type": "Point",
        "coordinates": [
          80.2193468,
          6.0411635
        ]
      },
      "id": "node/84048507"
    },
    {
      "type": "Feature",
      "properties": {
        "@id": "node/84048508",
        "amenity": "place_of_worship",
        "name": "Wijayananda Temple",
        "religion": "buddhist"
      },
      "geometry": {
        "type": "Point",
        "coordinates": [
          80.2206156,
          6.0394153
        ]
      },
      "id": "node/84048508"
    },
    {
      "type": "Feature",
      "properties": {
        "@id": "node/84048511",
        "amenity": "place_of_worship",
        "created_by": "JOSM",
        "religion": "muslim"
      },
      "geometry": {
        "type": "Point",
        "coordinates": [
          80.2204785,
          6.044276
        ]
      },
      "id": "node/84048511"
    },
    {
      "type": "Feature",
      "properties": {
        "@id": "node/91029264",
        "amenity": "school",
        "name": "Ceylinco Sussex College - Galle"
      },
      "geometry": {
        "type": "Point",
        "coordinates": [
          80.2043969,
          6.0562827
        ]
      },
      "id": "node/91029264"
    },
    {
      "type": "Feature",
      "properties": {
        "@id": "node/98714191",
        "amenity": "place_of_worship",
        "name": "Sinharaja Prantha Aranya Senasanaya",
        "religion": "buddhist"
      },
      "geometry": {
        "type": "Point",
        "coordinates": [
          80.6104762,
          6.453433
        ]
      },
      "id": "node/98714191"
    },
    {
      "type": "Feature",
      "properties": {
        "@id": "node/102732081",
        "amenity": "place_of_worship",
        "religion": "buddhist"
      },
      "geometry": {
        "type": "Point",
        "coordinates": [
          80.1936045,
          6.0618512
        ]
      },
      "id": "node/102732081"
    },
    {
      "type": "Feature",
      "properties": {
        "@id": "node/138741738",
        "amenity": "school",
        "created_by": "Potlatch 0.10f",
        "name": "Sacred Heart Convent"
      },
      "geometry": {
        "type": "Point",
        "coordinates": [
          80.2110256,
          6.0365987
        ]
      },
      "id": "node/138741738"
    },
    {
      "type": "Feature",
      "properties": {
        "@id": "node/138741751",
        "amenity": "school",
        "created_by": "Potlatch 0.10f",
        "name": "Saint Aloysius College"
      },
      "geometry": {
        "type": "Point",
        "coordinates": [
          80.2121328,
          6.0361207
        ]
      },
      "id": "node/138741751"
    },
    {
      "type": "Feature",
      "properties": {
        "@id": "node/165986759",
        "amenity": "place_of_worship",
        "created_by": "Potlatch 0.5d",
        "religion": "buddhist"
      },
      "geometry": {
        "type": "Point",
        "coordinates": [
          80.2189176,
          6.0391918
        ]
      },
      "id": "node/165986759"
    },
    {
      "type": "Feature",
      "properties": {
        "@id": "node/165988404",
        "amenity": "place_of_worship",
        "created_by": "Potlatch 0.5d",
        "name": "Galwadugoda Temple",
        "religion": "buddhist"
      },
      "geometry": {
        "type": "Point",
        "coordinates": [
          80.2100255,
          6.0420512
        ]
      },
      "id": "node/165988404"
    },
    {
      "type": "Feature",
      "properties": {
        "@id": "node/169928838",
        "addr:city": "Galle",
        "addr:housenumber": "60",
        "addr:postcode": "80000",
        "addr:street": "Church Street",
        "amenity": "school",
        "int_name": "Al Bahjathul Ibraheemiyyah Arabic College",
        "name": "Arabic College"
      },
      "geometry": {
        "type": "Point",
        "coordinates": [
          80.2179644,
          6.0253964
        ]
      },
      "id": "node/169928838"
    },
    {
      "type": "Feature",
      "properties": {
        "@id": "node/191815840",
        "amenity": "hospital",
        "emergency": "yes",
        "healthcare": "hospital",
        "name": "Asiri Surgical Hospital"
      },
      "geometry": {
        "type": "Point",
        "coordinates": [
          79.8797172,
          6.8945486
        ]
      },
      "id": "node/191815840"
    },
    {
      "type": "Feature",
      "properties": {
        "@id": "node/198534324",
        "addr:city": "Nuwara Eliya",
        "amenity": "place_of_worship",
        "denomination": "catholic",
        "name": "St. Francis Xavier Church",
        "religion": "christian"
      },
      "geometry": {
        "type": "Point",
        "coordinates": [
          80.7649851,
          6.9773138
        ]
      },
      "id": "node/198534324"
    },
    {
      "type": "Feature",
      "properties": {
        "@id": "node/248048979",
        "amenity": "place_of_worship",
        "created_by": "JOSM",
        "name": "Thelwatta Temple",
        "religion": "buddhist"
      },
      "geometry": {
        "type": "Point",
        "coordinates": [
          80.0911801,
          6.1704654
        ]
      },
      "id": "node/248048979"
    },
    {
      "type": "Feature",
      "properties": {
        "@id": "node/248049292",
        "addr:city": "Ambalangoda",
        "addr:street": "Madampagama,",
        "amenity": "place_of_worship",
        "name": "Nigrodarama Maha Viharaya",
        "religion": "buddhist",
        "service_times": "6 am.-8 pm"
      },
      "geometry": {
        "type": "Point",
        "coordinates": [
          80.0613044,
          6.2160001
        ]
      },
      "id": "node/248049292"
    },
    {
      "type": "Feature",
      "properties": {
        "@id": "node/248607673",
        "amenity": "place_of_worship",
        "religion": "buddhist"
      },
      "geometry": {
        "type": "Point",
        "coordinates": [
          80.2183437,
          6.0336472
        ]
      },
      "id": "node/248607673"
    },
    {
      "type": "Feature",
      "properties": {
        "@id": "node/250132315",
        "amenity": "place_of_worship",
        "name": "Tsunami Honganji Vihara",
        "note": "Buddha Statue - since 26.12.2005",
        "religion": "buddhist"
      },
      "geometry": {
        "type": "Point",
        "coordinates": [
          80.0917754,
          6.1630477
        ]
      },
      "id": "node/250132315"
    },
    {
      "type": "Feature",
      "properties": {
        "@id": "node/253022237",
        "amenity": "hospital",
        "designation": "mother and baby",
        "emergency": "yes",
        "healthcare": "hospital",
        "is_in": "Colombo, Colombo District, Western Province, Sri Lanka",
        "name": "Joseph Fraser Memorial Hospital",
        "wheelchair": "limited"
      },
      "geometry": {
        "type": "Point",
        "coordinates": [
          79.8652189,
          6.8952045
        ]
      },
      "id": "node/253022237"
    },
    {
      "type": "Feature",
      "properties": {
        "@id": "node/253606105",
        "amenity": "place_of_worship",
        "created_by": "xybot",
        "name": "Didiswatta",
        "religion": "buddhist"
      },
      "geometry": {
        "type": "Point",
        "coordinates": [
          80.2214569,
          6.0548541
        ]
      },
      "id": "node/253606105"
    },
    {
      "type": "Feature",
      "properties": {
        "@id": "node/254367261",
        "addr:city": "Wethara",
        "addr:street": "Colombo - Horana Road",
        "amenity": "hospital",
        "healthcare": "hospital",
        "name": "Wethara District Hospital"
      },
      "geometry": {
        "type": "Point",
        "coordinates": [
          79.9729749,
          6.7852045
        ]
      },
      "id": "node/254367261"
    },
    {
      "type": "Feature",
      "properties": {
        "@id": "node/254367496",
        "addr:street": "Horana-Anguruwathota-Aluthgama Road",
        "amenity": "school",
        "created_by": "Potlatch 0.8",
        "name": "Thakshila Central College",
        "name:en": "Taxila Central College , Horana"
      },
      "geometry": {
        "type": "Point",
        "coordinates": [
          80.0619358,
          6.7120268
        ]
      },
      "id": "node/254367496"
    },
    {
      "type": "Feature",
      "properties": {
        "@id": "node/255179653",
        "amenity": "hospital",
        "emergency": "yes",
        "healthcare": "hospital",
        "name": "Sri Jayawardenapura teaching hospital"
      },
      "geometry": {
        "type": "Point",
        "coordinates": [
          79.9261518,
          6.8683337
        ]
      },
      "id": "node/255179653"
    },
    {
      "type": "Feature",
      "properties": {
        "@id": "node/255477007",
        "amenity": "place_of_worship",
        "created_by": "JOSM",
        "religion": "buddhist"
      },
      "geometry": {
        "type": "Point",
        "coordinates": [
          80.2083534,
          6.0578728
        ]
      },
      "id": "node/255477007"
    },
    {
      "type": "Feature",
      "properties": {
        "@id": "node/255477008",
        "amenity": "place_of_worship",
        "name": "Sri Sadhatissaramaya",
        "religion": "buddhist"
      },
      "geometry": {
        "type": "Point",
        "coordinates": [
          80.2154199,
          6.0578826
        ]
      },
      "id": "node/255477008"
    },
    {
      "type": "Feature",
      "properties": {
        "@id": "node/256542591",
        "addr:city": "Piliyandala",
        "amenity": "school",
        "name": "Somaweera Chandrasiri Junior School"
      },
      "geometry": {
        "type": "Point",
        "coordinates": [
          79.9230047,
          6.8033559
        ]
      },
      "id": "node/256542591"
    },
    {
      "type": "Feature",
      "properties": {
        "@id": "node/257670621",
        "amenity": "place_of_worship",
        "name": "Nalanda Privena",
        "religion": "buddhist"
      },
      "geometry": {
        "type": "Point",
        "coordinates": [
          80.082412,
          6.7629633
        ]
      },
      "id": "node/257670621"
    },
    {
      "type": "Feature",
      "properties": {
        "@id": "node/257670624",
        "amenity": "place_of_worship",
        "check_date": "2024-03-01",
        "name": "Bhodirukkaramaya",
        "religion": "buddhist"
      },
      "geometry": {
        "type": "Point",
        "coordinates": [
          80.0774387,
          6.722502
        ]
      },
      "id": "node/257670624"
    },
    {
      "type": "Feature",
      "properties": {
        "@id": "node/257676186",
        "amenity": "school",
        "name": "Sripalee Vidyalaya"
      },
      "geometry": {
        "type": "Point",
        "coordinates": [
          80.068539,
          6.707453
        ]
      },
      "id": "node/257676186"
    },
    {
      "type": "Feature",
      "properties": {
        "@id": "node/257676329",
        "amenity": "school",
        "created_by": "Potlatch 0.8a",
        "name": "Thakshila primary"
      },
      "geometry": {
        "type": "Point",
        "coordinates": [
          80.0705634,
          6.7139662
        ]
      },
      "id": "node/257676329"
    },
    {
      "type": "Feature",
      "properties": {
        "@id": "node/257676382",
        "amenity": "school",
        "name": "Rajakeeya Vidyalaya"
      },
      "geometry": {
        "type": "Point",
        "coordinates": [
          80.0693193,
          6.7168268
        ]
      },
      "id": "node/257676382"
    },
    {
      "type": "Feature",
      "properties": {
        "@id": "node/259648485",
        "amenity": "school",
        "check_date": "2024-07-04",
        "created_by": "JOSM",
        "is_in": "Colombo, Colombo District, Western Province, Sri Lanka",
        "name": "Kingston College International"
      },
      "geometry": {
        "type": "Point",
        "coordinates": [
          79.8624412,
          6.87985
        ]
      },
      "id": "node/259648485"
    },
    {
      "type": "Feature",
      "properties": {
        "@id": "node/262607762",
        "addr:street": "Royal Garden",
        "amenity": "school",
        "name": "Gateway College",
        "wikidata": "Q5527219",
        "wikipedia": "en:Gateway College, Sri Lanka"
      },
      "geometry": {
        "type": "Point",
        "coordinates": [
          79.9002729,
          6.9027708
        ]
      },
      "id": "node/262607762"
    },
    {
      "type": "Feature",
      "properties": {
        "@id": "node/263179681",
        "addr:city": "Kandy",
        "addr:street": "Colombo-Kandy Road",
        "amenity": "school",
        "is_in": "Kandy, Kandy District, Central Province, Sri Lanka",
        "name": "Kingswood College",
        "wikidata": "Q6413771",
        "wikipedia": "en:Kingswood College, Kandy"
      },
      "geometry": {
        "type": "Point",
        "coordinates": [
          80.6157935,
          7.2776601
        ]
      },
      "id": "node/263179681"
    },
    {
      "type": "Feature",
      "properties": {
        "@id": "node/269067771",
        "addr:city": "Bambalapitiya",
        "addr:street": "R. A. De Mel Mawatha",
        "amenity": "school",
        "check_date": "2023-09-08",
        "name": "Muslim Ladies College"
      },
      "geometry": {
        "type": "Point",
        "coordinates": [
          79.8614288,
          6.8816677
        ]
      },
      "id": "node/269067771"
    },
    {
      "type": "Feature",
      "properties": {
        "@id": "node/269362613",
        "amenity": "place_of_worship",
        "name": "Kotte Rajamaha Viharaya",
        "religion": "buddhist"
      },
      "geometry": {
        "type": "Point",
        "coordinates": [
          79.9043667,
          6.8814277
        ]
      },
      "id": "node/269362613"
    },
    {
      "type": "Feature",
      "properties": {
        "@id": "node/269366454",
        "addr:city": "Colombo 2",
        "addr:housenumber": "61",
        "addr:street": "Sri Jinarathana Road",
        "amenity": "place_of_worship",
        "check_date": "2022-12-02",
        "denomination": "mahayana",
        "email": "gt@gangaramaya.com",
        "name": "Gangaramaya Temple",
        "name:en": "Gangaramaya Temple",
        "phone": "+94 112 435 169; +94 112 327 084; +94 112 459 622",
        "religion": "buddhist",
        "website": "https://gangaramaya.com/"
      },
      "geometry": {
        "type": "Point",
        "coordinates": [
          79.8566559,
          6.9166446
        ]
      },
      "id": "node/269366454"
    },
    {
      "type": "Feature",
      "properties": {
        "@id": "node/309611677",
        "amenity": "college",
        "created_by": "Potlatch 0.10f",
        "is_in": "Labuduwa, Galle, Galle District, Southern Province, Sri Lanka",
        "name": "Advanced Technical Institute - Labuduwa"
      },
      "geometry": {
        "type": "Point",
        "coordinates": [
          80.2335364,
          6.0743239
        ]
      },
      "id": "node/309611677"
    },
    {
      "type": "Feature",
      "properties": {
        "@id": "node/310166110",
        "amenity": "school"
      },
      "geometry": {
        "type": "Point",
        "coordinates": [
          80.1926041,
          6.0802882
        ]
      },
      "id": "node/310166110"
    },
    {
      "type": "Feature",
      "properties": {
        "@id": "node/310166807",
        "amenity": "hospital",
        "emergency": "no",
        "healthcare": "hospital",
        "is_in": "Galle, Galle District, Southern Province, Sri Lanka",
        "name": "Co-op Hospital"
      },
      "geometry": {
        "type": "Point",
        "coordinates": [
          80.2161531,
          6.0366488
        ]
      },
      "id": "node/310166807"
    },
    {
      "type": "Feature",
      "properties": {
        "@id": "node/310167231",
        "amenity": "place_of_worship",
        "denomination": "catholic",
        "name": "St. Francois Xavier Church",
        "religion": "christian"
      },
      "geometry": {
        "type": "Point",
        "coordinates": [
          80.2059459,
          6.0602475
        ]
      },
      "id": "node/310167231"
    },
    {
      "type": "Feature",
      "properties": {
        "@id": "node/445281002",
        "addr:city": "Matugama",
        "addr:street": "Nagoda - Kalawellawa - Bellapitiya Road",
        "amenity": "school",
        "name": "Athulathmudali Maha vidyalaya"
      },
      "geometry": {
        "type": "Point",
        "coordinates": [
          80.1116326,
          6.5219377
        ]
      },
      "id": "node/445281002"
    },
    {
      "type": "Feature",
      "properties": {
        "@id": "node/543854412",
        "amenity": "school",
        "name": "St. Johns College",
        "wikidata": "Q7588659",
        "wikipedia": "en:St. John's College, Panadura"
      },
      "geometry": {
        "type": "Point",
        "coordinates": [
          79.9142091,
          6.7229739
        ]
      },
      "id": "node/543854412"
    },
    {
      "type": "Feature",
      "properties": {
        "@id": "node/543860517",
        "amenity": "place_of_worship"
      },
      "geometry": {
        "type": "Point",
        "coordinates": [
          79.9055569,
          6.7261289
        ]
      },
      "id": "node/543860517"
    },
    {
      "type": "Feature",
      "properties": {
        "@id": "node/543864642",
        "amenity": "place_of_worship",
        "name": "Gangula Temple",
        "religion": "buddhist"
      },
      "geometry": {
        "type": "Point",
        "coordinates": [
          79.914715,
          6.7246287
        ]
      },
      "id": "node/543864642"
    },
    {
      "type": "Feature",
      "properties": {
        "@id": "node/543871109",
        "amenity": "school",
        "name": "Panadura Balika Vidyalaya"
      },
      "geometry": {
        "type": "Point",
        "coordinates": [
          79.908312,
          6.7133598
        ]
      },
      "id": "node/543871109"
    },
    {
      "type": "Feature",
      "properties": {
        "@id": "node/543872657",
        "amenity": "place_of_worship",
        "name": "Rankoth Vihara Temple",
        "religion": "buddhist"
      },
      "geometry": {
        "type": "Point",
        "coordinates": [
          79.9065934,
          6.7109205
        ]
      },
      "id": "node/543872657"
    },
    {
      "type": "Feature",
      "properties": {
        "@id": "node/566568722",
        "amenity": "place_of_worship",
        "ele": "130",
        "int_name": "Aukana temple",
        "name": "Awukana Viharaya",
        "religion": "buddhist"
      },
      "geometry": {
        "type": "Point",
        "coordinates": [
          80.5134623,
          8.0101332
        ]
      },
      "id": "node/566568722"
    },
    {
      "type": "Feature",
      "properties": {
        "@id": "node/567004191",
        "addr:street": "Vata Wandana Road",
        "amenity": "place_of_worship",
        "name": "Samadhi Buddha Statue",
        "religion": "buddhist"
      },
      "geometry": {
        "type": "Point",
        "coordinates": [
          80.398162,
          8.3698838
        ]
      },
      "id": "node/567004191"
    },
    {
      "type": "Feature",
      "properties": {
        "@id": "node/567004213",
        "amenity": "place_of_worship",
        "name": "Isurumuni Viharaya",
        "religion": "buddhist",
        "wikipedia": "en:Isurumuniya"
      },
      "geometry": {
        "type": "Point",
        "coordinates": [
          80.3903278,
          8.3344744
        ]
      },
      "id": "node/567004213"
    },
    {
      "type": "Feature",
      "properties": {
        "@id": "node/567018152",
        "amenity": "place_of_worship",
        "name": "Gal Viharaya",
        "religion": "buddhist",
        "wikidata": "Q5517744",
        "wikimedia_commons": "Category:Gal Viharaya",
        "wikipedia": "en: Gal Viharaya"
      },
      "geometry": {
        "type": "Point",
        "coordinates": [
          81.0049395,
          7.9660749
        ]
      },
      "id": "node/567018152"
    },
    {
      "type": "Feature",
      "properties": {
        "@id": "node/599713336",
        "addr:city": "Deepangoda",
        "addr:street": "Kottawa-Horana Road",
        "amenity": "school",
        "name": "Deepangoda Sri Medhananda Maha Vidyalaya"
      },
      "geometry": {
        "type": "Point",
        "coordinates": [
          79.9820128,
          6.816558
        ]
      },
      "id": "node/599713336"
    },
    {
      "type": "Feature",
      "properties": {
        "@id": "node/599742328",
        "addr:city": "Homagama",
        "addr:street": "Moragahahena Road",
        "amenity": "school",
        "name": "President's College"
      },
      "geometry": {
        "type": "Point",
        "coordinates": [
          80.0035762,
          6.8396183
        ]
      },
      "id": "node/599742328"
    },
    {
      "type": "Feature",
      "properties": {
        "@id": "node/599742332",
        "amenity": "school",
        "name": "Niyandagala Kanishta Vidyalaya"
      },
      "geometry": {
        "type": "Point",
        "coordinates": [
          79.9894893,
          6.826409
        ]
      },
      "id": "node/599742332"
    },
    {
      "type": "Feature",
      "properties": {
        "@id": "node/599762371",
        "addr:city": "Kottawa",
        "addr:street": "Piliyandala - Kottawa Road",
        "amenity": "place_of_worship",
        "name": "Sri Wijayatilakaramaya",
        "religion": "buddhist"
      },
      "geometry": {
        "type": "Point",
        "coordinates": [
          79.9637522,
          6.8325182
        ]
      },
      "id": "node/599762371"
    },
    {
      "type": "Feature",
      "properties": {
        "@id": "node/599762379",
        "amenity": "place_of_worship",
        "religion": "buddhist"
      },
      "geometry": {
        "type": "Point",
        "coordinates": [
          79.9918832,
          6.8221104
        ]
      },
      "id": "node/599762379"
    },
    {
      "type": "Feature",
      "properties": {
        "@id": "node/599762408",
        "amenity": "place_of_worship",
        "name": "Sri Wardhanaramaya",
        "religion": "buddhist"
      },
      "geometry": {
        "type": "Point",
        "coordinates": [
          79.9825652,
          6.8139023
        ]
      },
      "id": "node/599762408"
    },
    {
      "type": "Feature",
      "properties": {
        "@id": "node/599762429",
        "amenity": "pharmacy",
        "healthcare": "pharmacy",
        "name": "Government Dispensary, Brahmanagama"
      },
      "geometry": {
        "type": "Point",
        "coordinates": [
          79.9805879,
          6.8199958
        ]
      },
      "id": "node/599762429"
    },
    {
      "type": "Feature",
      "properties": {
        "@id": "node/599762445",
        "amenity": "place_of_worship",
        "name": "Makumbura Purana Viharaya",
        "religion": "buddhist"
      },
      "geometry": {
        "type": "Point",
        "coordinates": [
          79.9808004,
          6.8375568
        ]
      },
      "id": "node/599762445"
    },
    {
      "type": "Feature",
      "properties": {
        "@id": "node/599762465",
        "addr:city": "Mattegoda",
        "addr:street": "Kottawa-Horana Road",
        "amenity": "school",
        "name": "Vidyadeepa Maha Vidyalaya"
      },
      "geometry": {
        "type": "Point",
        "coordinates": [
          79.966435,
          6.8295514
        ]
      },
      "id": "node/599762465"
    },
    {
      "type": "Feature",
      "properties": {
        "@id": "node/599762473",
        "amenity": "place_of_worship",
        "name": "Kande Purana Viharaya",
        "religion": "buddhist"
      },
      "geometry": {
        "type": "Point",
        "coordinates": [
          79.9766107,
          6.8264621
        ]
      },
      "id": "node/599762473"
    },
    {
      "type": "Feature",
      "properties": {
        "@id": "node/599762488",
        "addr:city": "Deepangoda",
        "addr:street": "Kottawa-Horana Road",
        "amenity": "school",
        "name": "Deepangoda Primary School"
      },
      "geometry": {
        "type": "Point",
        "coordinates": [
          79.9829103,
          6.812792
        ]
      },
      "id": "node/599762488"
    },
    {
      "type": "Feature",
      "properties": {
        "@id": "node/599815324",
        "access": "no",
        "addr:city": "Panagoda",
        "amenity": "place_of_worship",
        "description": "Army camp temple",
        "name": "Sri Bodhirajaramaya",
        "religion": "buddhist"
      },
      "geometry": {
        "type": "Point",
        "coordinates": [
          80.0174862,
          6.84523
        ]
      },
      "id": "node/599815324"
    },
    {
      "type": "Feature",
      "properties": {
        "@id": "node/599822882",
        "addr:street": "Old Kottawa Road",
        "amenity": "school",
        "name": "Ananda Vidyalaya,  Kottawa"
      },
      "geometry": {
        "type": "Point",
        "coordinates": [
          79.9581677,
          6.8442343
        ]
      },
      "id": "node/599822882"
    },
    {
      "type": "Feature",
      "properties": {
        "@id": "node/599822883",
        "amenity": "school",
        "name": "Dharmapala Vidyalaya Kottawa North"
      },
      "geometry": {
        "type": "Point",
        "coordinates": [
          79.9584867,
          6.8655244
        ]
      },
      "id": "node/599822883"
    },
    {
      "type": "Feature",
      "properties": {
        "@id": "node/617205465",
        "amenity": "school",
        "name": "Vidya Wardana"
      },
      "geometry": {
        "type": "Point",
        "coordinates": [
          79.9299768,
          6.8880799
        ]
      },
      "id": "node/617205465"
    },
    {
      "type": "Feature",
      "properties": {
        "@id": "node/617214076",
        "amenity": "hospital",
        "emergency": "yes",
        "healthcare": "hospital",
        "name": "Divisional Hospital Thalangama"
      },
      "geometry": {
        "type": "Point",
        "coordinates": [
          79.9285198,
          6.9062331
        ]
      },
      "id": "node/617214076"
    },
    {
      "type": "Feature",
      "properties": {
        "@id": "node/617262855",
        "addr:city": "Pannipitiya",
        "addr:street": "Pannipitiya-Malambe Road",
        "amenity": "hospital",
        "healthcare": "hospital",
        "name": "Pannipitiya Nursing Home"
      },
      "geometry": {
        "type": "Point",
        "coordinates": [
          79.9522616,
          6.8468216
        ]
      },
      "id": "node/617262855"
    },
    {
      "type": "Feature",
      "properties": {
        "@id": "node/618005039",
        "addr:city": "Maharagama",
        "addr:street": "Mahamegawatte Road",
        "amenity": "school",
        "name": "President's College",
        "wikidata": "Q19709637",
        "wikipedia": "en:President's College, Maharagama"
      },
      "geometry": {
        "type": "Point",
        "coordinates": [
          79.9296221,
          6.8443786
        ]
      },
      "id": "node/618005039"
    },
    {
      "type": "Feature",
      "properties": {
        "@id": "node/618005040",
        "addr:city": "Maharagama",
        "addr:street": "Maharagama-Dehiwala Road",
        "amenity": "school",
        "name": "Vidyakara Balika Vidyalaya",
        "religion": "christian"
      },
      "geometry": {
        "type": "Point",
        "coordinates": [
          79.9260058,
          6.8451252
        ]
      },
      "id": "node/618005040"
    },
    {
      "type": "Feature",
      "properties": {
        "@id": "node/618491025",
        "amenity": "school",
        "historic": "monument",
        "name": "Ananda College",
        "shop": "department_store"
      },
      "geometry": {
        "type": "Point",
        "coordinates": [
          79.8685501,
          6.9243358
        ]
      },
      "id": "node/618491025"
    },
    {
      "type": "Feature",
      "properties": {
        "@id": "node/618551719",
        "amenity": "school",
        "name": "Weluwana Vidyalaya"
      },
      "geometry": {
        "type": "Point",
        "coordinates": [
          79.8798243,
          6.926872
        ]
      },
      "id": "node/618551719"
    },
    {
      "type": "Feature",
      "properties": {
        "@id": "node/618552113",
        "amenity": "school",
        "name": "Seewali Vidyalaya"
      },
      "geometry": {
        "type": "Point",
        "coordinates": [
          79.8805968,
          6.9235384
        ]
      },
      "id": "node/618552113"
    },
    {
      "type": "Feature",
      "properties": {
        "@id": "node/618557052",
        "addr:city": "colombo 08",
        "addr:street": "Cotta Road",
        "amenity": "hospital",
        "emergency": "yes",
        "healthcare": "hospital",
        "name": "Western Hospital",
        "wikidata": "Q20047300",
        "wikipedia": "en:Western Hospital"
      },
      "geometry": {
        "type": "Point",
        "coordinates": [
          79.8856356,
          6.9117052
        ]
      },
      "id": "node/618557052"
    },
    {
      "type": "Feature",
      "properties": {
        "@id": "node/618657478",
        "amenity": "hospital",
        "healthcare": "hospital",
        "name": "Dambulla General Provincial Hospital",
        "name:en": "Dambulla Hospital",
        "source": "GPS"
      },
      "geometry": {
        "type": "Point",
        "coordinates": [
          80.650505,
          7.8728249
        ]
      },
      "id": "node/618657478"
    },
    {
      "type": "Feature",
      "properties": {
        "@id": "node/619035512",
        "amenity": "school"
      },
      "geometry": {
        "type": "Point",
        "coordinates": [
          79.8885472,
          6.8729831
        ]
      },
      "id": "node/619035512"
    },
    {
      "type": "Feature",
      "properties": {
        "@id": "node/619735564",
        "amenity": "hospital",
        "check_date": "2024-08-09",
        "emergency": "yes",
        "healthcare": "hospital",
        "name": "Colombo General Hospital"
      },
      "geometry": {
        "type": "Point",
        "coordinates": [
          79.8671954,
          6.9172436
        ]
      },
      "id": "node/619735564"
    },
    {
      "type": "Feature",
      "properties": {
        "@id": "node/619923261",
        "addr:city": "Maharagama",
        "addr:street": "High Level Road",
        "amenity": "school",
        "name": "Buwanekaba Vidyalaya"
      },
      "geometry": {
        "type": "Point",
        "coordinates": [
          79.9249391,
          6.8488433
        ]
      },
      "id": "node/619923261"
    },
    {
      "type": "Feature",
      "properties": {
        "@id": "node/619944442",
        "addr:city": "Nawinna",
        "amenity": "hospital",
        "healthcare": "hospital",
        "name": "Nawinna Medicare Hospital"
      },
      "geometry": {
        "type": "Point",
        "coordinates": [
          79.9143409,
          6.8546505
        ]
      },
      "id": "node/619944442"
    },
    {
      "type": "Feature",
      "properties": {
        "@id": "node/619963184",
        "amenity": "place_of_worship",
        "name": "Sri Naga Viharaya",
        "religion": "buddhist"
      },
      "geometry": {
        "type": "Point",
        "coordinates": [
          79.8998662,
          6.881071
        ]
      },
      "id": "node/619963184"
    },
    {
      "type": "Feature",
      "properties": {
        "@id": "node/620382575",
        "addr:city": "Colombo 7",
        "amenity": "school",
        "name": "Ladies College"
      },
      "geometry": {
        "type": "Point",
        "coordinates": [
          79.8579211,
          6.9078747
        ]
      },
      "id": "node/620382575"
    },
    {
      "type": "Feature",
      "properties": {
        "@id": "node/620382897",
        "addr:city": "Colombo 03",
        "addr:street": "R.A. De Mel Mawatha",
        "amenity": "school",
        "name": "Mahanama College",
        "wikidata": "Q13645958",
        "wikipedia": "en:Mahanama College"
      },
      "geometry": {
        "type": "Point",
        "coordinates": [
          79.8538312,
          6.9054542
        ]
      },
      "id": "node/620382897"
    },
    {
      "type": "Feature",
      "properties": {
        "@id": "node/620403475",
        "amenity": "place_of_worship",
        "check_date": "2024-07-04",
        "name": "Dharmaramaya",
        "religion": "buddhist",
        "wheelchair": "no"
      },
      "geometry": {
        "type": "Point",
        "coordinates": [
          79.8611113,
          6.8798086
        ]
      },
      "id": "node/620403475"
    },
    {
      "type": "Feature",
      "properties": {
        "@id": "node/620519821",
        "addr:city": "Colombo 07",
        "addr:street": "Union Place",
        "amenity": "pharmacy",
        "dispensing": "no",
        "healthcare": "pharmacy",
        "name": "Osu Sala",
        "opening_hours": "Mo-Sa 00:00-00:00",
        "operator": "SPC"
      },
      "geometry": {
        "type": "Point",
        "coordinates": [
          79.8635977,
          6.9172062
        ]
      },
      "id": "node/620519821"
    },
    {
      "type": "Feature",
      "properties": {
        "@id": "node/620524466",
        "amenity": "school",
        "name": "Sri Rahula Balika Maha Vidyalaya"
      },
      "geometry": {
        "type": "Point",
        "coordinates": [
          79.9561321,
          6.9036373
        ]
      },
      "id": "node/620524466"
    },
    {
      "type": "Feature",
      "properties": {
        "@id": "node/621054055",
        "amenity": "pharmacy",
        "healthcare": "pharmacy"
      },
      "geometry": {
        "type": "Point",
        "coordinates": [
          79.9293289,
          6.8919196
        ]
      },
      "id": "node/621054055"
    },
    {
      "type": "Feature",
      "properties": {
        "@id": "node/621054056",
        "amenity": "place_of_worship",
        "religion": "buddhist"
      },
      "geometry": {
        "type": "Point",
        "coordinates": [
          79.927807,
          6.8920885
        ]
      },
      "id": "node/621054056"
    },
    {
      "type": "Feature",
      "properties": {
        "@id": "node/621179349",
        "addr:city": "Kolonnawa",
        "amenity": "place_of_worship",
        "name": "Kolonnawa Rajamaha Viharaya",
        "religion": "buddhist"
      },
      "geometry": {
        "type": "Point",
        "coordinates": [
          79.8880675,
          6.9329491
        ]
      },
      "id": "node/621179349"
    },
    {
      "type": "Feature",
      "properties": {
        "@id": "node/621180350",
        "addr:city": "Kelaniya",
        "amenity": "school",
        "name": "Bollegala Maha Vidyalayaa"
      },
      "geometry": {
        "type": "Point",
        "coordinates": [
          79.9481511,
          6.9443959
        ]
      },
      "id": "node/621180350"
    },
    {
      "type": "Feature",
      "properties": {
        "@id": "node/621183283",
        "amenity": "hospital",
        "emergency": "yes",
        "name": "Mulleriyawa Hospital"
      },
      "geometry": {
        "type": "Point",
        "coordinates": [
          79.942918,
          6.9247709
        ]
      },
      "id": "node/621183283"
    },
    {
      "type": "Feature",
      "properties": {
        "@id": "node/621195734",
        "amenity": "school",
        "check_date": "2023-03-08",
        "name": "Wedamulla Vidyalaya"
      },
      "geometry": {
        "type": "Point",
        "coordinates": [
          79.9012554,
          6.9671653
        ]
      },
      "id": "node/621195734"
    },
    {
      "type": "Feature",
      "properties": {
        "@id": "node/621199761",
        "amenity": "hospital",
        "emergency": "yes",
        "healthcare": "hospital",
        "name": "Hemas Hospital",
        "wheelchair": "yes"
      },
      "geometry": {
        "type": "Point",
        "coordinates": [
          79.8912101,
          6.9887373
        ]
      },
      "id": "node/621199761"
    },
    {
      "type": "Feature",
      "properties": {
        "@id": "node/621199763",
        "amenity": "school",
        "name": "Lyceum Int. School"
      },
      "geometry": {
        "type": "Point",
        "coordinates": [
          79.8871362,
          6.9874098
        ]
      },
      "id": "node/621199763"
    },
    {
      "type": "Feature",
      "properties": {
        "@id": "node/621201132",
        "amenity": "hospital",
        "healthcare": "hospital",
        "healthcare:speciality": "psychiatry",
        "name": "Hekitta Mental Hospital"
      },
      "geometry": {
        "type": "Point",
        "coordinates": [
          79.8768982,
          6.98282
        ]
      },
      "id": "node/621201132"
    },
    {
      "type": "Feature",
      "properties": {
        "@id": "node/621201133",
        "amenity": "hospital",
        "healthcare": "hospital",
        "name": "Leprosy Hospital"
      },
      "geometry": {
        "type": "Point",
        "coordinates": [
          79.8755142,
          6.9828093
        ]
      },
      "id": "node/621201133"
    },
    {
      "type": "Feature",
      "properties": {
        "@id": "node/621817275",
        "amenity": "college",
        "name": "AAT"
      },
      "geometry": {
        "type": "Point",
        "coordinates": [
          79.8769024,
          6.8966414
        ]
      },
      "id": "node/621817275"
    },
    {
      "type": "Feature",
      "properties": {
        "@id": "node/621817276",
        "addr:city": "Narahenpita",
        "amenity": "place_of_worship",
        "name": "Sri Abhayaramaya",
        "religion": "buddhist"
      },
      "geometry": {
        "type": "Point",
        "coordinates": [
          79.8762131,
          6.8963059
        ]
      },
      "id": "node/621817276"
    },
    {
      "type": "Feature",
      "properties": {
        "@id": "node/621908264",
        "amenity": "hospital",
        "healthcare": "hospital",
        "name": "Siddhalepa"
      },
      "geometry": {
        "type": "Point",
        "coordinates": [
          79.8773217,
          6.8311854
        ]
      },
      "id": "node/621908264"
    },
    {
      "type": "Feature",
      "properties": {
        "@id": "node/621925764",
        "addr:city": "Dehiwala",
        "amenity": "school",
        "name": "Presbyterian Girls School"
      },
      "geometry": {
        "type": "Point",
        "coordinates": [
          79.8633844,
          6.850498
        ]
      },
      "id": "node/621925764"
    },
    {
      "type": "Feature",
      "properties": {
        "@id": "node/621940730",
        "amenity": "place_of_worship",
        "name": "Sri Subodharama Raja Maha Viharaya",
        "religion": "buddhist"
      },
      "geometry": {
        "type": "Point",
        "coordinates": [
          79.8683572,
          6.84902
        ]
      },
      "id": "node/621940730"
    },
    {
      "type": "Feature",
      "properties": {
        "@id": "node/621950381",
        "amenity": "school",
        "name": "St. Mary's College"
      },
      "geometry": {
        "type": "Point",
        "coordinates": [
          79.8657984,
          6.8600104
        ]
      },
      "id": "node/621950381"
    },
    {
      "type": "Feature",
      "properties": {
        "@id": "node/621950387",
        "amenity": "college",
        "name": "American College"
      },
      "geometry": {
        "type": "Point",
        "coordinates": [
          79.8646671,
          6.8627911
        ]
      },
      "id": "node/621950387"
    },
    {
      "type": "Feature",
      "properties": {
        "@id": "node/621993734",
        "addr:city": "Colombo 07",
        "addr:street": "Keppetipola Mawatha",
        "amenity": "school",
        "name": "Sirimavo Bandaranayake Vidyalaya"
      },
      "geometry": {
        "type": "Point",
        "coordinates": [
          79.8636526,
          6.8950117
        ]
      },
      "id": "node/621993734"
    },
    {
      "type": "Feature",
      "properties": {
        "@id": "node/622293225",
        "addr:city": "Pepiliyana",
        "addr:street": "Pepiliyana Road",
        "amenity": "place_of_worship",
        "check_date": "2024-03-10",
        "denomination": "theravada",
        "name": "Pepiliyana Sunethra Devi Pirivena",
        "religion": "buddhist"
      },
      "geometry": {
        "type": "Point",
        "coordinates": [
          79.8908922,
          6.8562805
        ]
      },
      "id": "node/622293225"
    },
    {
      "type": "Feature",
      "properties": {
        "@id": "node/625833966",
        "amenity": "school",
        "name": "Vidyaraja Maha Vidyalaya"
      },
      "geometry": {
        "type": "Point",
        "coordinates": [
          79.9597468,
          6.8813645
        ]
      },
      "id": "node/625833966"
    },
    {
      "type": "Feature",
      "properties": {
        "@id": "node/626494151",
        "amenity": "college",
        "check_date": "2024-03-28",
        "name": "Vidura"
      },
      "geometry": {
        "type": "Point",
        "coordinates": [
          79.8876877,
          6.895058
        ]
      },
      "id": "node/626494151"
    },
    {
      "type": "Feature",
      "properties": {
        "@id": "node/633427090",
        "amenity": "pharmacy",
        "healthcare": "pharmacy",
        "name": "Harcourts"
      },
      "geometry": {
        "type": "Point",
        "coordinates": [
          79.8845316,
          6.9111324
        ]
      },
      "id": "node/633427090"
    },
    {
      "type": "Feature",
      "properties": {
        "@id": "node/633745114",
        "amenity": "school",
        "name": "Ranpokunagama Maha Vidyalaya",
        "wikidata": "Q15271837",
        "wikipedia": "en:Ranpokunagama Maha Vidyalaya"
      },
      "geometry": {
        "type": "Point",
        "coordinates": [
          80.1064131,
          7.1325742
        ]
      },
      "id": "node/633745114"
    },
    {
      "type": "Feature",
      "properties": {
        "@id": "node/633745117",
        "amenity": "place_of_worship",
        "name": "Ranpokunagama Viharaya",
        "religion": "buddhist"
      },
      "geometry": {
        "type": "Point",
        "coordinates": [
          80.1073055,
          7.1332771
        ]
      },
      "id": "node/633745117"
    },
    {
      "type": "Feature",
      "properties": {
        "@id": "node/637044384",
        "addr:city": "Thalapathpitiya",
        "amenity": "school",
        "name": "Siddhartha Vidyalaya"
      },
      "geometry": {
        "type": "Point",
        "coordinates": [
          79.9160249,
          6.8676383
        ]
      },
      "id": "node/637044384"
    },
    {
      "type": "Feature",
      "properties": {
        "@id": "node/637566077",
        "amenity": "place_of_worship",
        "check_date": "2022-11-15",
        "name": "Palaya Kathiresan Kovil",
        "religion": "hindu"
      },
      "geometry": {
        "type": "Point",
        "coordinates": [
          79.8574707,
          6.8908657
        ]
      },
      "id": "node/637566077"
    },
    {
      "type": "Feature",
      "properties": {
        "@id": "node/637566079",
        "amenity": "place_of_worship",
        "name": "Vajiraramya Buddhis Temple",
        "religion": "buddhist"
      },
      "geometry": {
        "type": "Point",
        "coordinates": [
          79.8579879,
          6.8901125
        ]
      },
      "id": "node/637566079"
    },
    {
      "type": "Feature",
      "properties": {
        "@id": "node/642970355",
        "amenity": "school",
        "name": "Ananda Balika Vidyalaya",
        "wikidata": "Q55603882",
        "wikipedia": "en:Ananda Balika Vidyalaya"
      },
      "geometry": {
        "type": "Point",
        "coordinates": [
          79.8972652,
          6.8851191
        ]
      },
      "id": "node/642970355"
    },
    {
      "type": "Feature",
      "properties": {
        "@id": "node/642981927",
        "addr:city": "Thimbirigasyaya",
        "addr:street": "Isipathana Mawatha",
        "amenity": "place_of_worship",
        "name": "Isipathanarama Temple",
        "religion": "buddhist",
        "wikidata": "Q16979801",
        "wikipedia": "en:Isipathanaramaya Temple"
      },
      "geometry": {
        "type": "Point",
        "coordinates": [
          79.8655919,
          6.8885067
        ]
      },
      "id": "node/642981927"
    },
    {
      "type": "Feature",
      "properties": {
        "@id": "node/642994300",
        "addr:street": "Sri Visuddharama Rd",
        "amenity": "place_of_worship",
        "name": "Sri Visuddharamaya",
        "religion": "buddhist"
      },
      "geometry": {
        "type": "Point",
        "coordinates": [
          79.8683774,
          6.8796526
        ]
      },
      "id": "node/642994300"
    },
    {
      "type": "Feature",
      "properties": {
        "@id": "node/643015381",
        "amenity": "school",
        "name": "Buddhagosha College"
      },
      "geometry": {
        "type": "Point",
        "coordinates": [
          79.8715531,
          6.8654991
        ]
      },
      "id": "node/643015381"
    },
    {
      "type": "Feature",
      "properties": {
        "@id": "node/644607603",
        "addr:city": "Colombo 9",
        "addr:street": "Kotta Road",
        "amenity": "school",
        "check_date": "2024-03-29",
        "name": "S W R D Bandaranayake School"
      },
      "geometry": {
        "type": "Point",
        "coordinates": [
          79.8869455,
          6.9118886
        ]
      },
      "id": "node/644607603"
    },
    {
      "type": "Feature",
      "properties": {
        "@id": "node/644610676",
        "addr:city": "Colombo 07",
        "addr:housenumber": "63",
        "addr:street": "Elvitigala Mawatha",
        "amenity": "school",
        "check_date": "2023-01-01",
        "fee": "yes",
        "name": "British School",
        "operator:type": "international",
        "phone": "+94 115 329 329",
        "wheelchair": "yes"
      },
      "geometry": {
        "type": "Point",
        "coordinates": [
          79.8775192,
          6.9061448
        ]
      },
      "id": "node/644610676"
    },
    {
      "type": "Feature",
      "properties": {
        "@id": "node/645091711",
        "leisure": "playground"
      },
      "geometry": {
        "type": "Point",
        "coordinates": [
          79.8742689,
          6.9043108
        ]
      },
      "id": "node/645091711"
    },
    {
      "type": "Feature",
      "properties": {
        "@id": "node/652380047",
        "addr:city": "Panadura",
        "addr:street": "Main Street",
        "amenity": "school",
        "name": "Lyceum International School"
      },
      "geometry": {
        "type": "Point",
        "coordinates": [
          79.9049301,
          6.7257226
        ]
      },
      "id": "node/652380047"
    },
    {
      "type": "Feature",
      "properties": {
        "@id": "node/652394763",
        "amenity": "school",
        "name": "German Technical Institute"
      },
      "geometry": {
        "type": "Point",
        "coordinates": [
          79.887687,
          6.8035952
        ]
      },
      "id": "node/652394763"
    },
    {
      "type": "Feature",
      "properties": {
        "@id": "node/652406107",
        "amenity": "school",
        "name": "Girls High School",
        "operator": "Mount Lavinia"
      },
      "geometry": {
        "type": "Point",
        "coordinates": [
          79.8649848,
          6.8346059
        ]
      },
      "id": "node/652406107"
    },
    {
      "type": "Feature",
      "properties": {
        "@id": "node/652615712",
        "addr:city": "Galle",
        "addr:street": "Sri Jinenendrarama Mawatha",
        "amenity": "place_of_worship",
        "name": "Sri Jinendraramaya",
        "religion": "buddhist"
      },
      "geometry": {
        "type": "Point",
        "coordinates": [
          80.2298394,
          6.0500595
        ]
      },
      "id": "node/652615712"
    },
    {
      "type": "Feature",
      "properties": {
        "@id": "node/652636947",
        "amenity": "school",
        "name": "Kalegana Piyatissa Vidyalaya"
      },
      "geometry": {
        "type": "Point",
        "coordinates": [
          80.2013754,
          6.0576123
        ]
      },
      "id": "node/652636947"
    },
    {
      "type": "Feature",
      "properties": {
        "@id": "node/653114083",
        "amenity": "school",
        "name": "C.W.W Kannangara Vidyalaya"
      },
      "geometry": {
        "type": "Point",
        "coordinates": [
          79.8772536,
          6.9190008
        ]
      },
      "id": "node/653114083"
    },
    {
      "type": "Feature",
      "properties": {
        "@id": "node/653114084",
        "addr:city": "Colombo 08",
        "amenity": "school",
        "name": "Rathnawali Balika Maha Vidyalaya"
      },
      "geometry": {
        "type": "Point",
        "coordinates": [
          79.8744749,
          6.9183511
        ]
      },
      "id": "node/653114084"
    },
    {
      "type": "Feature",
      "properties": {
        "@id": "node/653114085",
        "amenity": "place_of_worship",
        "name": "St Lukes Church"
      },
      "geometry": {
        "type": "Point",
        "coordinates": [
          79.8748048,
          6.9180369
        ]
      },
      "id": "node/653114085"
    },
    {
      "type": "Feature",
      "properties": {
        "@id": "node/653114086",
        "addr:city": "Borella",
        "addr:street": "P De S Kularatne Mawatha",
        "amenity": "college",
        "name": "Aquinas College"
      },
      "geometry": {
        "type": "Point",
        "coordinates": [
          79.8748799,
          6.9172115
        ]
      },
      "id": "node/653114086"
    },
    {
      "type": "Feature",
      "properties": {
        "@id": "node/653114087",
        "amenity": "school",
        "name": "All Saints College"
      },
      "geometry": {
        "type": "Point",
        "coordinates": [
          79.8752903,
          6.9205026
        ]
      },
      "id": "node/653114087"
    },
    {
      "type": "Feature",
      "properties": {
        "@id": "node/653129368",
        "amenity": "school",
        "name": "Zahira College"
      },
      "geometry": {
        "type": "Point",
        "coordinates": [
          79.8648297,
          6.9277024
        ]
      },
      "id": "node/653129368"
    },
    {
      "type": "Feature",
      "properties": {
        "@id": "node/653129370",
        "amenity": "school",
        "name": "Nalanda College",
        "wikidata": "Q3529297",
        "wikipedia": "en:Nalanda College, Colombo"
      },
      "geometry": {
        "type": "Point",
        "coordinates": [
          79.8736809,
          6.9234421
        ]
      },
      "id": "node/653129370"
    },
    {
      "type": "Feature",
      "properties": {
        "@id": "node/653453152",
        "amenity": "school",
        "name": "N I B M",
        "wikidata": "Q15261128",
        "wikipedia": "en:National Institute of Business Management (Sri Lanka)"
      },
      "geometry": {
        "type": "Point",
        "coordinates": [
          79.8707846,
          6.9064357
        ]
      },
      "id": "node/653453152"
    },
    {
      "type": "Feature",
      "properties": {
        "@id": "node/654172175",
        "amenity": "hospital",
        "healthcare": "hospital",
        "name": "Sulaiman"
      },
      "geometry": {
        "type": "Point",
        "coordinates": [
          79.8658056,
          6.9420589
        ]
      },
      "id": "node/654172175"
    },
    {
      "type": "Feature",
      "properties": {
        "@id": "node/654176450",
        "amenity": "school",
        "name": "St. Josephs College"
      },
      "geometry": {
        "type": "Point",
        "coordinates": [
          79.8747958,
          6.9481518
        ]
      },
      "id": "node/654176450"
    },
    {
      "type": "Feature",
      "properties": {
        "@id": "node/654176451",
        "amenity": "place_of_worship",
        "name": "St Josephs Church",
        "religion": "christian"
      },
      "geometry": {
        "type": "Point",
        "coordinates": [
          79.873702,
          6.9489069
        ]
      },
      "id": "node/654176451"
    },
    {
      "type": "Feature",
      "properties": {
        "@id": "node/660913848",
        "addr:city": "Uswetakeiyawa",
        "amenity": "place_of_worship",
        "denomination": "catholic",
        "name": "St.Mary's Church",
        "religion": "christian"
      },
      "geometry": {
        "type": "Point",
        "coordinates": [
          79.8598729,
          7.0432385
        ]
      },
      "id": "node/660913848"
    },
    {
      "type": "Feature",
      "properties": {
        "@id": "node/660913854",
        "leisure": "park",
        "name": "Leo Memorial playground"
      },
      "geometry": {
        "type": "Point",
        "coordinates": [
          79.8583486,
          7.0768595
        ]
      },
      "id": "node/660913854"
    },
    {
      "type": "Feature",
      "properties": {
        "@id": "node/660913857",
        "amenity": "school",
        "name": "Bopitiya Central"
      },
      "geometry": {
        "type": "Point",
        "coordinates": [
          79.8590782,
          7.0753583
        ]
      },
      "id": "node/660913857"
    },
    {
      "type": "Feature",
      "properties": {
        "@id": "node/660913860",
        "amenity": "place_of_worship",
        "name": "St.Nicolas Church"
      },
      "geometry": {
        "type": "Point",
        "coordinates": [
          79.8604622,
          7.070402
        ]
      },
      "id": "node/660913860"
    },
    {
      "type": "Feature",
      "properties": {
        "@id": "node/660913866",
        "amenity": "school",
        "name": "Don Bosco Palliyawatta"
      },
      "geometry": {
        "type": "Point",
        "coordinates": [
          79.8698714,
          6.9868082
        ]
      },
      "id": "node/660913866"
    },
    {
      "type": "Feature",
      "properties": {
        "@id": "node/666855408",
        "amenity": "place_of_worship",
        "check_date": "2024-08-08",
        "name": "Walukarama Temple",
        "religion": "buddhist"
      },
      "geometry": {
        "type": "Point",
        "coordinates": [
          79.8558833,
          6.9058138
        ]
      },
      "id": "node/666855408"
    },
    {
      "type": "Feature",
      "properties": {
        "@id": "node/666872853",
        "amenity": "school",
        "name": "British Council"
      },
      "geometry": {
        "type": "Point",
        "coordinates": [
          79.8564536,
          6.8997496
        ]
      },
      "id": "node/666872853"
    },
    {
      "type": "Feature",
      "properties": {
        "@id": "node/666881113",
        "addr:city": "Bambalapitiya",
        "addr:street": "Bauddhaloka Mawatha",
        "amenity": "place_of_worship",
        "building": "mosque",
        "check_date": "2024-02-23",
        "name": "Jumma Mosque",
        "religion": "muslim"
      },
      "geometry": {
        "type": "Point",
        "coordinates": [
          79.8561026,
          6.8959689
        ]
      },
      "id": "node/666881113"
    },
    {
      "type": "Feature",
      "properties": {
        "@id": "node/666892252",
        "amenity": "school",
        "name": "St.Thomas Preparatory School",
        "wikidata": "Q7387949",
        "wikipedia": "en:S. Thomas' Preparatory School"
      },
      "geometry": {
        "type": "Point",
        "coordinates": [
          79.8475967,
          6.9168028
        ]
      },
      "id": "node/666892252"
    },
    {
      "type": "Feature",
      "properties": {
        "@id": "node/666903859",
        "amenity": "university",
        "name": "ICFAI"
      },
      "geometry": {
        "type": "Point",
        "coordinates": [
          79.8783864,
          6.8703856
        ]
      },
      "id": "node/666903859"
    },
    {
      "type": "Feature",
      "properties": {
        "@id": "node/666903861",
        "addr:housenumber": "43",
        "addr:street": "S De S Jayasinghe Mawatha, Kalubowila, Dehiwela",
        "amenity": "school",
        "name": "Colombo South International College",
        "wikidata": "Q5148042"
      },
      "geometry": {
        "type": "Point",
        "coordinates": [
          79.8802961,
          6.8664231
        ]
      },
      "id": "node/666903861"
    },
    {
      "type": "Feature",
      "properties": {
        "@id": "node/666903865",
        "amenity": "place_of_worship",
        "name": "Balapokuna Purana Viharaya",
        "religion": "buddhist"
      },
      "geometry": {
        "type": "Point",
        "coordinates": [
          79.8777534,
          6.8729207
        ]
      },
      "id": "node/666903865"
    },
    {
      "type": "Feature",
      "properties": {
        "@id": "node/667214242",
        "addr:city": "Bambalapitiya",
        "addr:street": "Galle Road",
        "amenity": "school",
        "check_date": "2022-12-23",
        "name": "St. Pauls college"
      },
      "geometry": {
        "type": "Point",
        "coordinates": [
          79.8581249,
          6.8858698
        ]
      },
      "id": "node/667214242"
    },
    {
      "type": "Feature",
      "properties": {
        "@id": "node/667271921",
        "addr:city": "Wellawatte",
        "amenity": "place_of_worship",
        "check_date": "2022-10-25",
        "name": "Ramakrishna Mission",
        "religion": "hindu",
        "wheelchair": "no"
      },
      "geometry": {
        "type": "Point",
        "coordinates": [
          79.8610004,
          6.865794
        ]
      },
      "id": "node/667271921"
    },
    {
      "type": "Feature",
      "properties": {
        "@id": "node/667276042",
        "addr:city": "Wellawatte - Colombo 06",
        "addr:housenumber": "213",
        "addr:postcode": "00600",
        "addr:street": "Galle Road",
        "amenity": "school",
        "name": "St. Lawrance Girls School",
        "religion": "christian"
      },
      "geometry": {
        "type": "Point",
        "coordinates": [
          79.8614195,
          6.8747942
        ]
      },
      "id": "node/667276042"
    },
    {
      "type": "Feature",
      "properties": {
        "@id": "node/667278638",
        "amenity": "place_of_worship",
        "name": "St. Pauls Church",
        "religion": "christian"
      },
      "geometry": {
        "type": "Point",
        "coordinates": [
          79.8581341,
          6.8860923
        ]
      },
      "id": "node/667278638"
    },
    {
      "type": "Feature",
      "properties": {
        "@id": "node/667762085",
        "addr:street": "Elvitigala Mawatha",
        "amenity": "college",
        "name": "C I M A",
        "short_name": "CIMA;CGMA;AICPA;CPA"
      },
      "geometry": {
        "type": "Point",
        "coordinates": [
          79.8768801,
          6.8984057
        ]
      },
      "id": "node/667762085"
    },
    {
      "type": "Feature",
      "properties": {
        "@id": "node/667775848",
        "addr:city": "Colombo 07",
        "amenity": "school",
        "name": "Wycherley International School",
        "phone": "+94 77 7730730"
      },
      "geometry": {
        "type": "Point",
        "coordinates": [
          79.8672375,
          6.9005918
        ]
      },
      "id": "node/667775848"
    },
    {
      "type": "Feature",
      "properties": {
        "@id": "node/667776952",
        "leisure": "playground"
      },
      "geometry": {
        "type": "Point",
        "coordinates": [
          79.8688576,
          6.8981421
        ]
      },
      "id": "node/667776952"
    },
    {
      "type": "Feature",
      "properties": {
        "@id": "node/667823900",
        "amenity": "school",
        "name": "St Mary's Girl School"
      },
      "geometry": {
        "type": "Point",
        "coordinates": [
          79.8533097,
          6.9137171
        ]
      },
      "id": "node/667823900"
    },
    {
      "type": "Feature",
      "properties": {
        "@id": "node/667823903",
        "amenity": "school",
        "name": "St. Micheals College"
      },
      "geometry": {
        "type": "Point",
        "coordinates": [
          79.8527947,
          6.9136106
        ]
      },
      "id": "node/667823903"
    },
    {
      "type": "Feature",
      "properties": {
        "@id": "node/670258817",
        "amenity": "school",
        "name": "Royal Institute Nugegoda"
      },
      "geometry": {
        "type": "Point",
        "coordinates": [
          79.893517,
          6.8723063
        ]
      },
      "id": "node/670258817"
    },
    {
      "type": "Feature",
      "properties": {
        "@id": "node/670306322",
        "amenity": "school",
        "name": "Sri Jayawardanepura Girl School"
      },
      "geometry": {
        "type": "Point",
        "coordinates": [
          79.900427,
          6.8920362
        ]
      },
      "id": "node/670306322"
    },
    {
      "type": "Feature",
      "properties": {
        "@id": "node/672180371",
        "addr:city": "Maradana",
        "amenity": "college",
        "name": "Maradana Technical College",
        "wikidata": "Q6754587",
        "wikipedia": "en:Maradana College of Technology"
      },
      "geometry": {
        "type": "Point",
        "coordinates": [
          79.8594636,
          6.9321835
        ]
      },
      "id": "node/672180371"
    },
    {
      "type": "Feature",
      "properties": {
        "@id": "node/672197375",
        "addr:city": "Maharagama",
        "addr:street": "High Level Road",
        "amenity": "school",
        "name": "Dharmashoka Primary School"
      },
      "geometry": {
        "type": "Point",
        "coordinates": [
          79.9352518,
          6.8450065
        ]
      },
      "id": "node/672197375"
    },
    {
      "type": "Feature",
      "properties": {
        "@id": "node/672197378",
        "addr:city": "Maharagama",
        "addr:street": "Gammana Road",
        "amenity": "school",
        "name": "Central College Maharagama"
      },
      "geometry": {
        "type": "Point",
        "coordinates": [
          79.9352557,
          6.8432797
        ]
      },
      "id": "node/672197378"
    },
    {
      "type": "Feature",
      "properties": {
        "@id": "node/672596265",
        "addr:city": "Colombo",
        "addr:country": "LK",
        "addr:housenumber": "4/97",
        "addr:street": "Thalakotuwa Gardens",
        "amenity": "school",
        "email": "asianinter@eureka.lk",
        "fax": "+ 94 11 2512633",
        "name": "Asian International School",
        "phone": "+94 11 2513181",
        "website": "https://www.ais.lk/"
      },
      "geometry": {
        "type": "Point",
        "coordinates": [
          79.8729767,
          6.884889
        ]
      },
      "id": "node/672596265"
    },
    {
      "type": "Feature",
      "properties": {
        "@id": "node/672773904",
        "amenity": "school",
        "name": "Institute of Architect"
      },
      "geometry": {
        "type": "Point",
        "coordinates": [
          79.8711849,
          6.9064618
        ]
      },
      "id": "node/672773904"
    },
    {
      "type": "Feature",
      "properties": {
        "@id": "node/672773905",
        "amenity": "school",
        "name": "Institute of Engineers (IESL)"
      },
      "geometry": {
        "type": "Point",
        "coordinates": [
          79.8720539,
          6.9068559
        ]
      },
      "id": "node/672773905"
    },
    {
      "type": "Feature",
      "properties": {
        "@id": "node/672787155",
        "amenity": "school",
        "check_date": "2023-01-09",
        "name": "Dudley Senanayake College"
      },
      "geometry": {
        "type": "Point",
        "coordinates": [
          79.8734409,
          6.890663
        ]
      },
      "id": "node/672787155"
    },
    {
      "type": "Feature",
      "properties": {
        "@id": "node/673069752",
        "amenity": "place_of_worship",
        "name": "Dharma Nikethanaya Temple",
        "religion": "buddhist"
      },
      "geometry": {
        "type": "Point",
        "coordinates": [
          79.8950819,
          6.8994789
        ]
      },
      "id": "node/673069752"
    },
    {
      "type": "Feature",
      "properties": {
        "@id": "node/673918205",
        "amenity": "place_of_worship",
        "name": "Mayura Kovil",
        "religion": "hindu",
        "wheelchair": "limited"
      },
      "geometry": {
        "type": "Point",
        "coordinates": [
          79.8687215,
          6.8822179
        ]
      },
      "id": "node/673918205"
    },
    {
      "type": "Feature",
      "properties": {
        "@id": "node/673924700",
        "amenity": "place_of_worship",
        "denomination": "theravada",
        "name": "Hathbodiya Temple",
        "religion": "buddhist"
      },
      "geometry": {
        "type": "Point",
        "coordinates": [
          79.8695807,
          6.865186
        ]
      },
      "id": "node/673924700"
    },
    {
      "type": "Feature",
      "properties": {
        "@id": "node/673927618",
        "amenity": "hospital",
        "healthcare": "hospital",
        "name": "Dehiwala Medical Centre"
      },
      "geometry": {
        "type": "Point",
        "coordinates": [
          79.8664157,
          6.8607229
        ]
      },
      "id": "node/673927618"
    },
    {
      "type": "Feature",
      "properties": {
        "@id": "node/673927619",
        "amenity": "place_of_worship",
        "name": "Temple"
      },
      "geometry": {
        "type": "Point",
        "coordinates": [
          79.8670057,
          6.8612874
        ]
      },
      "id": "node/673927619"
    },
    {
      "type": "Feature",
      "properties": {
        "@id": "node/673953421",
        "amenity": "school",
        "name": "Sumaga Vidyalaya"
      },
      "geometry": {
        "type": "Point",
        "coordinates": [
          79.8701386,
          6.8484516
        ]
      },
      "id": "node/673953421"
    },
    {
      "type": "Feature",
      "properties": {
        "@id": "node/673953424",
        "amenity": "place_of_worship",
        "name": "St.Anthoney's Church",
        "religion": "christian"
      },
      "geometry": {
        "type": "Point",
        "coordinates": [
          79.8675558,
          6.8438594
        ]
      },
      "id": "node/673953424"
    },
    {
      "type": "Feature",
      "properties": {
        "@id": "node/673953425",
        "amenity": "place_of_worship",
        "denomination": "theravada",
        "name": "Sumanarama Temple",
        "religion": "buddhist"
      },
      "geometry": {
        "type": "Point",
        "coordinates": [
          79.8701171,
          6.840718
        ]
      },
      "id": "node/673953425"
    },
    {
      "type": "Feature",
      "properties": {
        "@id": "node/673953427",
        "amenity": "place_of_worship",
        "name": "Shashtrananda School"
      },
      "geometry": {
        "type": "Point",
        "coordinates": [
          79.874106,
          6.8439807
        ]
      },
      "id": "node/673953427"
    },
    {
      "type": "Feature",
      "properties": {
        "@id": "node/673953430",
        "amenity": "place_of_worship",
        "name": "Prathibimbaramaya Temple"
      },
      "geometry": {
        "type": "Point",
        "coordinates": [
          79.8743657,
          6.8600198
        ]
      },
      "id": "node/673953430"
    },
    {
      "type": "Feature",
      "properties": {
        "@id": "node/674889508",
        "amenity": "school",
        "check_date": "2022-11-23",
        "name": "St. Lawrence Convent"
      },
      "geometry": {
        "type": "Point",
        "coordinates": [
          79.8621808,
          6.8756454
        ]
      },
      "id": "node/674889508"
    },
    {
      "type": "Feature",
      "properties": {
        "@id": "node/674889509",
        "amenity": "place_of_worship",
        "check_date": "2023-10-08",
        "name": "Methodist Church Wellawatta",
        "religion": "christian"
      },
      "geometry": {
        "type": "Point",
        "coordinates": [
          79.8612474,
          6.8764975
        ]
      },
      "id": "node/674889509"
    },
    {
      "type": "Feature",
      "properties": {
        "@id": "node/674889511",
        "amenity": "school",
        "name": "St. Clares Girl School"
      },
      "geometry": {
        "type": "Point",
        "coordinates": [
          79.8616,
          6.8765387
        ]
      },
      "id": "node/674889511"
    },
    {
      "type": "Feature",
      "properties": {
        "@id": "node/674889526",
        "amenity": "school",
        "check_date": "2022-11-25",
        "name": "Lumbini Balika Vidyalaya"
      },
      "geometry": {
        "type": "Point",
        "coordinates": [
          79.86423,
          6.8764762
        ]
      },
      "id": "node/674889526"
    },
    {
      "type": "Feature",
      "properties": {
        "@id": "node/674898000",
        "amenity": "place_of_worship",
        "name": "Vidya Vijaya aramaya",
        "religion": "buddhist"
      },
      "geometry": {
        "type": "Point",
        "coordinates": [
          79.8959284,
          6.8809548
        ]
      },
      "id": "node/674898000"
    },
    {
      "type": "Feature",
      "properties": {
        "@id": "node/674943715",
        "amenity": "place_of_worship",
        "denomination": "theravada",
        "name": "sri sumanaramaya",
        "religion": "buddhist"
      },
      "geometry": {
        "type": "Point",
        "coordinates": [
          79.8863662,
          6.8597544
        ]
      },
      "id": "node/674943715"
    },
    {
      "type": "Feature",
      "properties": {
        "@id": "node/674943723",
        "addr:city": "Pepiliyana",
        "amenity": "school",
        "name": "Mahamaya Balika Vidyalaya"
      },
      "geometry": {
        "type": "Point",
        "coordinates": [
          79.8953078,
          6.862447
        ]
      },
      "id": "node/674943723"
    },
    {
      "type": "Feature",
      "properties": {
        "@id": "node/675889209",
        "amenity": "school",
        "name": "St. Margerets convent"
      },
      "geometry": {
        "type": "Point",
        "coordinates": [
          79.8531046,
          6.9145596
        ]
      },
      "id": "node/675889209"
    },
    {
      "type": "Feature",
      "properties": {
        "@id": "node/675994028",
        "amenity": "place_of_worship",
        "name": "Pattini Devalaya"
      },
      "geometry": {
        "type": "Point",
        "coordinates": [
          79.8672968,
          6.856601
        ]
      },
      "id": "node/675994028"
    },
    {
      "type": "Feature",
      "properties": {
        "@id": "node/676008027",
        "amenity": "place_of_worship",
        "name": "Sri Venkateshwara Maha Vishnu Kovil",
        "religion": "hindu"
      },
      "geometry": {
        "type": "Point",
        "coordinates": [
          79.881019,
          6.8571442
        ]
      },
      "id": "node/676008027"
    },
    {
      "type": "Feature",
      "properties": {
        "@id": "node/678259132",
        "amenity": "place_of_worship",
        "name": "Sive Subramaniya Kovil Slave Island",
        "religion": "hindu"
      },
      "geometry": {
        "type": "Point",
        "coordinates": [
          79.8525759,
          6.9249696
        ]
      },
      "id": "node/678259132"
    },
    {
      "type": "Feature",
      "properties": {
        "@id": "node/678259136",
        "addr:city": "Colombo02",
        "addr:street": "Kew Lane",
        "amenity": "place_of_worship",
        "name": "Masjidul Akbar Jumma Mosque Slave Island",
        "religion": "muslim"
      },
      "geometry": {
        "type": "Point",
        "coordinates": [
          79.8530785,
          6.9245156
        ]
      },
      "id": "node/678259136"
    },
    {
      "type": "Feature",
      "properties": {
        "@id": "node/678287423",
        "amenity": "place_of_worship",
        "name": "Sri Bodhiraja Viharaya",
        "religion": "buddhist"
      },
      "geometry": {
        "type": "Point",
        "coordinates": [
          79.8522443,
          6.9211999
        ]
      },
      "id": "node/678287423"
    },
    {
      "type": "Feature",
      "properties": {
        "@id": "node/678323259",
        "amenity": "place_of_worship",
        "denomination": "catholic",
        "name": "St. Anthony's Church",
        "religion": "christian"
      },
      "geometry": {
        "type": "Point",
        "coordinates": [
          79.8542371,
          6.9076913
        ]
      },
      "id": "node/678323259"
    },
    {
      "type": "Feature",
      "properties": {
        "@id": "node/678323262",
        "amenity": "school",
        "name": "St. Anthony's Balika Vidyalaya"
      },
      "geometry": {
        "type": "Point",
        "coordinates": [
          79.8553092,
          6.9079768
        ]
      },
      "id": "node/678323262"
    },
    {
      "type": "Feature",
      "properties": {
        "@id": "node/678342993",
        "amenity": "place_of_worship",
        "name": "Mattarama Buddhist Temple",
        "religion": "buddhist"
      },
      "geometry": {
        "type": "Point",
        "coordinates": [
          79.8564867,
          6.8947428
        ]
      },
      "id": "node/678342993"
    },
    {
      "type": "Feature",
      "properties": {
        "@id": "node/678342997",
        "amenity": "school",
        "name": "St.Mary's Vidyalaya"
      },
      "geometry": {
        "type": "Point",
        "coordinates": [
          79.8574567,
          6.8945644
        ]
      },
      "id": "node/678342997"
    },
    {
      "type": "Feature",
      "properties": {
        "@id": "node/678342999",
        "amenity": "place_of_worship",
        "name": "St.Mary's Church",
        "religion": "christian"
      },
      "geometry": {
        "type": "Point",
        "coordinates": [
          79.8581401,
          6.8948336
        ]
      },
      "id": "node/678342999"
    },
    {
      "type": "Feature",
      "properties": {
        "@id": "node/678372742",
        "amenity": "school",
        "name": "Wellawatta Vidyalaya"
      },
      "geometry": {
        "type": "Point",
        "coordinates": [
          79.8682536,
          6.8803581
        ]
      },
      "id": "node/678372742"
    },
    {
      "type": "Feature",
      "properties": {
        "@id": "node/678591928",
        "addr:city": "Dehiwala",
        "amenity": "place_of_worship",
        "name": "Sri Punyawardanaramaya Temple"
      },
      "geometry": {
        "type": "Point",
        "coordinates": [
          79.8720785,
          6.858902
        ]
      },
      "id": "node/678591928"
    },
    {
      "type": "Feature",
      "properties": {
        "@id": "node/678612526",
        "amenity": "place_of_worship",
        "name": "Jumma Mosque",
        "religion": "muslim"
      },
      "geometry": {
        "type": "Point",
        "coordinates": [
          79.8695143,
          6.8372459
        ]
      },
      "id": "node/678612526"
    },
    {
      "type": "Feature",
      "properties": {
        "@id": "node/678640547",
        "amenity": "place_of_worship",
        "name": "Sri Sugatha Dharmayathanaya",
        "religion": "buddhist"
      },
      "geometry": {
        "type": "Point",
        "coordinates": [
          79.8708579,
          6.831599
        ]
      },
      "id": "node/678640547"
    },
    {
      "type": "Feature",
      "properties": {
        "@id": "node/678692751",
        "addr:city": "Kohuwala",
        "addr:street": "Sri Maha Vihara Road",
        "amenity": "place_of_worship",
        "name": "Sri Maha Viharaya",
        "religion": "buddhist"
      },
      "geometry": {
        "type": "Point",
        "coordinates": [
          79.8733201,
          6.8716286
        ]
      },
      "id": "node/678692751"
    },
    {
      "type": "Feature",
      "properties": {
        "@id": "node/679004906",
        "amenity": "hospital",
        "healthcare": "hospital",
        "name": "Maccarthy Private Hospital"
      },
      "geometry": {
        "type": "Point",
        "coordinates": [
          79.8697567,
          6.9139635
        ]
      },
      "id": "node/679004906"
    },
    {
      "type": "Feature",
      "properties": {
        "@id": "node/679007498",
        "amenity": "place_of_worship",
        "name": "Sri Bauddhaloka Maha Viharaya",
        "religion": "buddhist"
      },
      "geometry": {
        "type": "Point",
        "coordinates": [
          79.8766027,
          6.9085649
        ]
      },
      "id": "node/679007498"
    },
    {
      "type": "Feature",
      "properties": {
        "@id": "node/679008484",
        "addr:city": "Colombo",
        "addr:housename": "Sri Sambodhi Viharaya",
        "addr:housenumber": "108",
        "addr:postcode": "00700",
        "addr:street": "Wijerama Mawatha",
        "amenity": "place_of_worship",
        "building:levels": "2",
        "name": "Sri Sambodhi Viharaya",
        "religion": "buddhist"
      },
      "geometry": {
        "type": "Point",
        "coordinates": [
          79.8712374,
          6.9092001
        ]
      },
      "id": "node/679008484"
    },
    {
      "type": "Feature",
      "properties": {
        "@id": "node/679017350",
        "amenity": "school",
        "name": "Janadhipathi Balika Vidyalaya"
      },
      "geometry": {
        "type": "Point",
        "coordinates": [
          79.8933923,
          6.8958781
        ]
      },
      "id": "node/679017350"
    },
    {
      "type": "Feature",
      "properties": {
        "@id": "node/679017352",
        "amenity": "school",
        "name": "Ananda Vidyalaya Nawala"
      },
      "geometry": {
        "type": "Point",
        "coordinates": [
          79.8888111,
          6.8930981
        ]
      },
      "id": "node/679017352"
    },
    {
      "type": "Feature",
      "properties": {
        "@id": "node/679023678",
        "amenity": "place_of_worship",
        "name": "Veherakanda Temple",
        "religion": "buddhist"
      },
      "geometry": {
        "type": "Point",
        "coordinates": [
          79.9140319,
          6.8867925
        ]
      },
      "id": "node/679023678"
    },
    {
      "type": "Feature",
      "properties": {
        "@id": "node/679023681",
        "amenity": "school",
        "name": "Ananda Sastralaya kotte",
        "wikidata": "Q4751312",
        "wikipedia": "en:Ananda Sastralaya, Kotte"
      },
      "geometry": {
        "type": "Point",
        "coordinates": [
          79.902713,
          6.882926
        ]
      },
      "id": "node/679023681"
    },
    {
      "type": "Feature",
      "properties": {
        "@id": "node/679045166",
        "addr:city": "Battaramulla",
        "addr:street": "Robert Gunwaradane Road",
        "amenity": "school",
        "name": "Sri Subuthi Vidyalaya",
        "population": "2500"
      },
      "geometry": {
        "type": "Point",
        "coordinates": [
          79.9240445,
          6.902909
        ]
      },
      "id": "node/679045166"
    },
    {
      "type": "Feature",
      "properties": {
        "@id": "node/679048560",
        "leisure": "playground"
      },
      "geometry": {
        "type": "Point",
        "coordinates": [
          79.9257746,
          6.8852853
        ]
      },
      "id": "node/679048560"
    },
    {
      "type": "Feature",
      "properties": {
        "@id": "node/681217992",
        "amenity": "school",
        "name": "Sri Rewatha College"
      },
      "geometry": {
        "type": "Point",
        "coordinates": [
          79.8974008,
          6.8681009
        ]
      },
      "id": "node/681217992"
    },
    {
      "type": "Feature",
      "properties": {
        "@id": "node/681217993",
        "amenity": "place_of_worship",
        "name": "Subadrarama Temple",
        "religion": "buddhist"
      },
      "geometry": {
        "type": "Point",
        "coordinates": [
          79.8977222,
          6.8678121
        ]
      },
      "id": "node/681217993"
    },
    {
      "type": "Feature",
      "properties": {
        "@id": "node/681253289",
        "amenity": "place_of_worship",
        "name": "Sri Devram Maha Viharaya",
        "religion": "buddhist"
      },
      "geometry": {
        "type": "Point",
        "coordinates": [
          79.9426626,
          6.8537078
        ]
      },
      "id": "node/681253289"
    },
    {
      "type": "Feature",
      "properties": {
        "@id": "node/681268686",
        "amenity": "place_of_worship",
        "denomination": "roman_catholic",
        "religion": "christian"
      },
      "geometry": {
        "type": "Point",
        "coordinates": [
          79.930877,
          6.8434523
        ]
      },
      "id": "node/681268686"
    },
    {
      "type": "Feature",
      "properties": {
        "@id": "node/681537053",
        "amenity": "school",
        "check_date": "2024-03-10",
        "name": "Maligawatta Mahavidyalaya"
      },
      "geometry": {
        "type": "Point",
        "coordinates": [
          79.8780917,
          6.9416932
        ]
      },
      "id": "node/681537053"
    },
    {
      "type": "Feature",
      "properties": {
        "@id": "node/681588250",
        "amenity": "school",
        "name": "St. Joseph's Pre School"
      },
      "geometry": {
        "type": "Point",
        "coordinates": [
          79.8629591,
          6.9632624
        ]
      },
      "id": "node/681588250"
    },
    {
      "type": "Feature",
      "properties": {
        "@id": "node/681588260",
        "amenity": "place_of_worship",
        "name": "St.John's Church"
      },
      "geometry": {
        "type": "Point",
        "coordinates": [
          79.8704458,
          6.9686107
        ]
      },
      "id": "node/681588260"
    },
    {
      "type": "Feature",
      "properties": {
        "@id": "node/681711557",
        "amenity": "school",
        "name": "Sangamitta balika Vidyalaya"
      },
      "geometry": {
        "type": "Point",
        "coordinates": [
          79.8731312,
          6.9212156
        ]
      },
      "id": "node/681711557"
    },
    {
      "type": "Feature",
      "properties": {
        "@id": "node/681782121",
        "amenity": "school",
        "name": "Aquinas College"
      },
      "geometry": {
        "type": "Point",
        "coordinates": [
          79.8743972,
          6.9176583
        ]
      },
      "id": "node/681782121"
    },
    {
      "type": "Feature",
      "properties": {
        "@id": "node/681782132",
        "addr:city": "Colombo 07",
        "addr:street": "Kynsey Road",
        "amenity": "school",
        "check_date": "2024-08-12",
        "name": "Carey College"
      },
      "geometry": {
        "type": "Point",
        "coordinates": [
          79.871217,
          6.9183324
        ]
      },
      "id": "node/681782132"
    },
    {
      "type": "Feature",
      "properties": {
        "@id": "node/681782141",
        "addr:city": "Colombo 07",
        "addr:street": "Kynsey Road",
        "amenity": "school",
        "name": "Yasodara Balika vidyalaya"
      },
      "geometry": {
        "type": "Point",
        "coordinates": [
          79.872584,
          6.9169021
        ]
      },
      "id": "node/681782141"
    },
    {
      "type": "Feature",
      "properties": {
        "@id": "node/681802829",
        "amenity": "place_of_worship",
        "name": "Sri Bodhirajaramaya",
        "religion": "buddhist"
      },
      "geometry": {
        "type": "Point",
        "coordinates": [
          79.8681208,
          6.9229836
        ]
      },
      "id": "node/681802829"
    },
    {
      "type": "Feature",
      "properties": {
        "@id": "node/681802844",
        "amenity": "school",
        "name": "Stafford College"
      },
      "geometry": {
        "type": "Point",
        "coordinates": [
          79.8669875,
          6.9231206
        ]
      },
      "id": "node/681802844"
    },
    {
      "type": "Feature",
      "properties": {
        "@id": "node/681802854",
        "amenity": "place_of_worship",
        "name": "Fathima Church",
        "religion": "christian"
      },
      "geometry": {
        "type": "Point",
        "coordinates": [
          79.8652562,
          6.9226428
        ]
      },
      "id": "node/681802854"
    },
    {
      "type": "Feature",
      "properties": {
        "@id": "node/681802896",
        "addr:city": "Colombo 10",
        "addr:housenumber": "19",
        "addr:street": "Kynsey Road",
        "amenity": "hospital",
        "check_date": "2025-08-13",
        "emergency": "yes",
        "healthcare": "hospital",
        "name": "De Soysa Hospital for Women",
        "opening_hours": "24/7",
        "operator:type": "government",
        "wheelchair": "yes"
      },
      "geometry": {
        "type": "Point",
        "coordinates": [
          79.8702449,
          6.9198065
        ]
      },
      "id": "node/681802896"
    },
    {
      "type": "Feature",
      "properties": {
        "@id": "node/681802907",
        "amenity": "school",
        "name": "Nurses Training Institute"
      },
      "geometry": {
        "type": "Point",
        "coordinates": [
          79.8819761,
          6.8894197
        ]
      },
      "id": "node/681802907"
    },
    {
      "type": "Feature",
      "properties": {
        "@id": "node/681802920",
        "amenity": "place_of_worship",
        "name": "Dutch Reform Church",
        "religion": "christian"
      },
      "geometry": {
        "type": "Point",
        "coordinates": [
          79.8671874,
          6.9192026
        ]
      },
      "id": "node/681802920"
    },
    {
      "type": "Feature",
      "properties": {
        "@id": "node/681816262",
        "amenity": "school",
        "name": "Maligakanda Maha Vidyalaya"
      },
      "geometry": {
        "type": "Point",
        "coordinates": [
          79.8729488,
          6.9266367
        ]
      },
      "id": "node/681816262"
    },
    {
      "type": "Feature",
      "properties": {
        "@id": "node/681871474",
        "addr:city": "Colombo",
        "addr:street": "Sri Dhamma Road",
        "amenity": "school",
        "name": "Alhijra School"
      },
      "geometry": {
        "type": "Point",
        "coordinates": [
          79.8749014,
          6.9289905
        ]
      },
      "id": "node/681871474"
    },
    {
      "type": "Feature",
      "properties": {
        "@id": "node/681871529",
        "amenity": "school",
        "name": "Ananda Balika Viidyalaya Maradana"
      },
      "geometry": {
        "type": "Point",
        "coordinates": [
          79.869655,
          6.9269456
        ]
      },
      "id": "node/681871529"
    },
    {
      "type": "Feature",
      "properties": {
        "@id": "node/681871598",
        "amenity": "place_of_worship",
        "name": "Mahabodi Samagama",
        "religion": "buddhist"
      },
      "geometry": {
        "type": "Point",
        "coordinates": [
          79.8692688,
          6.9268497
        ]
      },
      "id": "node/681871598"
    },
    {
      "type": "Feature",
      "properties": {
        "@id": "node/681977644",
        "amenity": "school",
        "name": "Clifton Balika vidyalaya"
      },
      "geometry": {
        "type": "Point",
        "coordinates": [
          79.868389,
          6.9272438
        ]
      },
      "id": "node/681977644"
    },
    {
      "type": "Feature",
      "properties": {
        "@id": "node/681977660",
        "amenity": "school",
        "name": "Vidyadaya Pirivena"
      },
      "geometry": {
        "type": "Point",
        "coordinates": [
          79.8694405,
          6.9273503
        ]
      },
      "id": "node/681977660"
    },
    {
      "type": "Feature",
      "properties": {
        "@id": "node/682080543",
        "amenity": "school",
        "check_date": "2024-08-09",
        "name": "Anuruddha Balika Vidyalaya"
      },
      "geometry": {
        "type": "Point",
        "coordinates": [
          79.8784098,
          6.9295763
        ]
      },
      "id": "node/682080543"
    },
    {
      "type": "Feature",
      "properties": {
        "@id": "node/682080653",
        "amenity": "place_of_worship",
        "name": "Somaramaya",
        "religion": "buddhist"
      },
      "geometry": {
        "type": "Point",
        "coordinates": [
          79.8743435,
          6.92227
        ]
      },
      "id": "node/682080653"
    },
    {
      "type": "Feature",
      "properties": {
        "@id": "node/682080665",
        "amenity": "place_of_worship",
        "name": "Vivekaramaya",
        "religion": "buddhist"
      },
      "geometry": {
        "type": "Point",
        "coordinates": [
          79.8759421,
          6.9224511
        ]
      },
      "id": "node/682080665"
    },
    {
      "type": "Feature",
      "properties": {
        "@id": "node/682084505",
        "addr:country": "LK",
        "amenity": "place_of_worship",
        "name": "Jumma mosque",
        "religion": "muslim"
      },
      "geometry": {
        "type": "Point",
        "coordinates": [
          79.8761875,
          6.9305881
        ]
      },
      "id": "node/682084505"
    },
    {
      "type": "Feature",
      "properties": {
        "@id": "node/682601036",
        "amenity": "school",
        "name": "Hameed Al Hussaini College"
      },
      "geometry": {
        "type": "Point",
        "coordinates": [
          79.8598042,
          6.9408877
        ]
      },
      "id": "node/682601036"
    },
    {
      "type": "Feature",
      "properties": {
        "@id": "node/682652547",
        "amenity": "school",
        "name": "Vivekananda College"
      },
      "geometry": {
        "type": "Point",
        "coordinates": [
          79.8594823,
          6.9431455
        ]
      },
      "id": "node/682652547"
    },
    {
      "type": "Feature",
      "properties": {
        "@id": "node/682652552",
        "amenity": "school",
        "name": "Wolfendhal Girls School"
      },
      "geometry": {
        "type": "Point",
        "coordinates": [
          79.8597076,
          6.9419846
        ]
      },
      "id": "node/682652552"
    },
    {
      "type": "Feature",
      "properties": {
        "@id": "node/682652558",
        "amenity": "school",
        "name": "Kotahena Central College"
      },
      "geometry": {
        "type": "Point",
        "coordinates": [
          79.8623362,
          6.9414628
        ]
      },
      "id": "node/682652558"
    },
    {
      "type": "Feature",
      "properties": {
        "@id": "node/682652569",
        "amenity": "place_of_worship",
        "name": "Wolvendaal Church",
        "religion": "christian",
        "wikidata": "Q16736534",
        "wikimedia_commons": "Category:Wolvendaal Church",
        "wikipedia": "en:Wolvendaal Church"
      },
      "geometry": {
        "type": "Point",
        "coordinates": [
          79.8590271,
          6.9420432
        ]
      },
      "id": "node/682652569"
    },
    {
      "type": "Feature",
      "properties": {
        "@id": "node/682652654",
        "amenity": "school",
        "name": "St. Anne's Convent"
      },
      "geometry": {
        "type": "Point",
        "coordinates": [
          79.8580769,
          6.9442744
        ]
      },
      "id": "node/682652654"
    },
    {
      "type": "Feature",
      "properties": {
        "@id": "node/682652657",
        "amenity": "school",
        "name": "St.Marry's College"
      },
      "geometry": {
        "type": "Point",
        "coordinates": [
          79.8583558,
          6.9437845
        ]
      },
      "id": "node/682652657"
    },
    {
      "type": "Feature",
      "properties": {
        "@id": "node/682652665",
        "amenity": "place_of_worship",
        "denomination": "roman_catholic",
        "name": "St.Mary's Church",
        "religion": "christian"
      },
      "geometry": {
        "type": "Point",
        "coordinates": [
          79.8595145,
          6.9456057
        ]
      },
      "id": "node/682652665"
    },
    {
      "type": "Feature",
      "properties": {
        "@id": "node/682652715",
        "amenity": "place_of_worship",
        "name": "New Kathiresan Kovil",
        "religion": "hindu"
      },
      "geometry": {
        "type": "Point",
        "coordinates": [
          79.8546222,
          6.9421231
        ]
      },
      "id": "node/682652715"
    },
    {
      "type": "Feature",
      "properties": {
        "@id": "node/682685487",
        "amenity": "place_of_worship",
        "name": "Sri Bodhirajaramaya",
        "religion": "buddhist"
      },
      "geometry": {
        "type": "Point",
        "coordinates": [
          79.8573044,
          6.9424426
        ]
      },
      "id": "node/682685487"
    },
    {
      "type": "Feature",
      "properties": {
        "@id": "node/682685490",
        "amenity": "place_of_worship",
        "check_date": "2024-12-26",
        "denomination": "methodist",
        "name": "Methodist Church",
        "religion": "christian",
        "wikidata": "Q38251247",
        "wikipedia": "en:Methodist Church, Pettah"
      },
      "geometry": {
        "type": "Point",
        "coordinates": [
          79.8564139,
          6.9389919
        ]
      },
      "id": "node/682685490"
    },
    {
      "type": "Feature",
      "properties": {
        "@id": "node/682687385",
        "addr:city": "Colombo 11",
        "addr:street": "Sir Baron Jayathilaka Mawatha",
        "amenity": "place_of_worship",
        "check_date": "2024-12-26",
        "name": "Sri Bodhiraja Viharaya",
        "religion": "buddhist"
      },
      "geometry": {
        "type": "Point",
        "coordinates": [
          79.8481559,
          6.9367886
        ]
      },
      "id": "node/682687385"
    },
    {
      "type": "Feature",
      "properties": {
        "@id": "node/683783949",
        "amenity": "place_of_worship",
        "check_date": "2024-04-01",
        "denomination": "roman_catholic",
        "name": "Sacred Heart Church",
        "religion": "christian"
      },
      "geometry": {
        "type": "Point",
        "coordinates": [
          79.89409,
          6.9106902
        ]
      },
      "id": "node/683783949"
    },
    {
      "type": "Feature",
      "properties": {
        "@id": "node/683783950",
        "amenity": "school",
        "name": "Holy Family Convent Rajagiriya"
      },
      "geometry": {
        "type": "Point",
        "coordinates": [
          79.8948303,
          6.9112867
        ]
      },
      "id": "node/683783950"
    },
    {
      "type": "Feature",
      "properties": {
        "@id": "node/683783951",
        "addr:city": "Rajagiriya",
        "addr:street": "Dharmapala PL",
        "amenity": "place_of_worship",
        "name": "Sri Vijayaramaya Buddhist Temple",
        "religion": "buddhist"
      },
      "geometry": {
        "type": "Point",
        "coordinates": [
          79.8950667,
          6.9122126
        ]
      },
      "id": "node/683783951"
    },
    {
      "type": "Feature",
      "properties": {
        "@id": "node/683783956",
        "amenity": "place_of_worship",
        "name": "Temple",
        "religion": "buddhist"
      },
      "geometry": {
        "type": "Point",
        "coordinates": [
          79.8977703,
          6.9115436
        ]
      },
      "id": "node/683783956"
    },
    {
      "type": "Feature",
      "properties": {
        "@id": "node/683786322",
        "amenity": "school",
        "name": "Vidyakeerthi Vidyalaya"
      },
      "geometry": {
        "type": "Point",
        "coordinates": [
          79.8921374,
          6.91625
        ]
      },
      "id": "node/683786322"
    },
    {
      "type": "Feature",
      "properties": {
        "@id": "node/683787576",
        "amenity": "school",
        "name": "Sri Parakumbha Vidyalaya"
      },
      "geometry": {
        "type": "Point",
        "coordinates": [
          79.8903242,
          6.9143967
        ]
      },
      "id": "node/683787576"
    },
    {
      "type": "Feature",
      "properties": {
        "@id": "node/683787577",
        "amenity": "place_of_worship",
        "name": "Sri Amaraviharaya"
      },
      "geometry": {
        "type": "Point",
        "coordinates": [
          79.890182,
          6.913321
        ]
      },
      "id": "node/683787577"
    },
    {
      "type": "Feature",
      "properties": {
        "@id": "node/683788943",
        "amenity": "place_of_worship",
        "name": "Sudharmaramaya Purana Viharaya",
        "religion": "buddhist"
      },