{
  "type": "FeatureCollection",
  "generator": "overpass-turbo",
  "copyright": "The data included in this document is from www.openstreetmap.org. The data is made available under ODbL.",
  "timestamp": "2025-08-19T19:05:00Z",
  "features": [
    {
      "type": "Feature",
      "properties": {
        "@id": "node/61602781",
        "internet_access": "no",
        "name": "Kumarakanda",
        "public_transport": "station",
        "railway": "station"
      },
      "geometry": {
        "type": "Point",
        "coordinates": [
          80.1242971,
          6.1124846
        ]
      },
      "id": "node/61602781"
    },
    {
      "type": "Feature",
      "properties": {
        "@id": "node/87762356",
        "name": "Piyathigama",
        "public_transport": "station",
        "railway": "station"
      },
      "geometry": {
        "type": "Point",
        "coordinates": [
          80.1909694,
          6.0536503
        ]
      },
      "id": "node/87762356"
    },
    {
      "type": "Feature",
      "properties": {
        "@id": "node/91029612",
        "addr:city": "Thiranagama",
        "addr:postcode": "80244",
        "addr:street": "Galle Road",
        "name": "Thiranagama",
        "public_transport": "station",
        "railway": "station"
      },
      "geometry": {
        "type": "Point",
        "coordinates": [
          80.1143858,
          6.1223145
        ]
      },
      "id": "node/91029612"
    },
    {
      "type": "Feature",
      "properties": {
        "@id": "node/91036830",
        "name": "Ginthota",
        "railway": "station"
      },
      "geometry": {
        "type": "Point",
        "coordinates": [
          80.1793892,
          6.0606665
        ]
      },
      "id": "node/91036830"
    },
    {
      "type": "Feature",
      "properties": {
        "@id": "node/92056585",
        "name": "Panadura",
        "network": "Coastal Line",
        "operator": "Sri Lanka Railways",
        "public_transport": "station",
        "railway": "station",
        "train": "yes"
      },
      "geometry": {
        "type": "Point",
        "coordinates": [
          79.9045698,
          6.7124698
        ]
      },
      "id": "node/92056585"
    },
    {
      "type": "Feature",
      "properties": {
        "@id": "node/92058899",
        "name": "Payagala",
        "railway": "station"
      },
      "geometry": {
        "type": "Point",
        "coordinates": [
          79.9789255,
          6.5218897
        ]
      },
      "id": "node/92058899"
    },
    {
      "type": "Feature",
      "properties": {
        "@id": "node/92124678",
        "name": "Dodanduwa",
        "railway": "station"
      },
      "geometry": {
        "type": "Point",
        "coordinates": [
          80.1328946,
          6.0981764
        ]
      },
      "id": "node/92124678"
    },
    {
      "type": "Feature",
      "properties": {
        "@id": "node/92126866",
        "name": "Seenigama",
        "railway": "station"
      },
      "geometry": {
        "type": "Point",
        "coordinates": [
          80.094758,
          6.1586793
        ]
      },
      "id": "node/92126866"
    },
    {
      "type": "Feature",
      "properties": {
        "@id": "node/92126920",
        "name": "Kahawe",
        "railway": "station"
      },
      "geometry": {
        "type": "Point",
        "coordinates": [
          80.073997,
          6.1831844
        ]
      },
      "id": "node/92126920"
    },
    {
      "type": "Feature",
      "properties": {
        "@id": "node/92128330",
        "name": "Madampagama",
        "public_transport": "station",
        "railway": "station"
      },
      "geometry": {
        "type": "Point",
        "coordinates": [
          80.0612425,
          6.2122769
        ]
      },
      "id": "node/92128330"
    },
    {
      "type": "Feature",
      "properties": {
        "@id": "node/92128703",
        "name": "Balapititya",
        "public_transport": "station",
        "railway": "station"
      },
      "geometry": {
        "type": "Point",
        "coordinates": [
          80.0433039,
          6.2764251
        ]
      },
      "id": "node/92128703"
    },
    {
      "type": "Feature",
      "properties": {
        "@id": "node/92128815",
        "name": "Ahungalla",
        "public_transport": "station",
        "railway": "station"
      },
      "geometry": {
        "type": "Point",
        "coordinates": [
          80.0375793,
          6.3127714
        ]
      },
      "id": "node/92128815"
    },
    {
      "type": "Feature",
      "properties": {
        "@id": "node/92128871",
        "name": "Kosgoda",
        "public_transport": "station",
        "railway": "station"
      },
      "geometry": {
        "type": "Point",
        "coordinates": [
          80.029375,
          6.3385232
        ]
      },
      "id": "node/92128871"
    },
    {
      "type": "Feature",
      "properties": {
        "@id": "node/92129026",
        "name": "Richmond Hill",
        "public_transport": "station",
        "railway": "station"
      },
      "geometry": {
        "type": "Point",
        "coordinates": [
          80.2048071,
          6.0539303
        ]
      },
      "id": "node/92129026"
    },
    {
      "type": "Feature",
      "properties": {
        "@id": "node/92132195",
        "abbr_name": "SCR",
        "name": "Secretariat Halt",
        "network": "Coastal Line",
        "operator": "Sri Lanka Railways",
        "public_transport": "station",
        "railway": "station",
        "train": "yes"
      },
      "geometry": {
        "type": "Point",
        "coordinates": [
          79.8460372,
          6.9314483
        ]
      },
      "id": "node/92132195"
    },
    {
      "type": "Feature",
      "properties": {
        "@id": "node/198553239",
        "amenity": "parking"
      },
      "geometry": {
        "type": "Point",
        "coordinates": [
          80.7665941,
          6.9735225
        ]
      },
      "id": "node/198553239"
    },
    {
      "type": "Feature",
      "properties": {
        "@id": "node/256026311",
        "amenity": "bus_station",
        "name": "CTB  Depot - Horana"
      },
      "geometry": {
        "type": "Point",
        "coordinates": [
          80.0751124,
          6.7219363
        ]
      },
      "id": "node/256026311"
    },
    {
      "type": "Feature",
      "properties": {
        "@id": "node/257678661",
        "amenity": "parking"
      },
      "geometry": {
        "type": "Point",
        "coordinates": [
          79.9267685,
          6.86705
        ]
      },
      "id": "node/257678661"
    },
    {
      "type": "Feature",
      "properties": {
        "@id": "node/268931147",
        "access": "customers",
        "amenity": "parking",
        "fee": "yes",
        "name": "Joseph Frazer Maternity Hospital Car Park",
        "parking": "surface"
      },
      "geometry": {
        "type": "Point",
        "coordinates": [
          79.8647173,
          6.894992
        ]
      },
      "id": "node/268931147"
    },
    {
      "type": "Feature",
      "properties": {
        "@id": "node/304322071",
        "name": "Wanawasala",
        "public_transport": "station",
        "railway": "station"
      },
      "geometry": {
        "type": "Point",
        "coordinates": [
          79.8993572,
          6.9755509
        ]
      },
      "id": "node/304322071"
    },
    {
      "type": "Feature",
      "properties": {
        "@id": "node/338554325",
        "name": "Watagoda",
        "railway": "station"
      },
      "geometry": {
        "type": "Point",
        "coordinates": [
          80.6528447,
          6.9688843
        ]
      },
      "id": "node/338554325"
    },
    {
      "type": "Feature",
      "properties": {
        "@id": "node/347323226",
        "name": "Bujjomuwa",
        "railway": "station"
      },
      "geometry": {
        "type": "Point",
        "coordinates": [
          80.2106384,
          7.2731777
        ]
      },
      "id": "node/347323226"
    },
    {
      "type": "Feature",
      "properties": {
        "@id": "node/347323232",
        "name": "Yaththalgoda",
        "railway": "station"
      },
      "geometry": {
        "type": "Point",
        "coordinates": [
          80.1943101,
          7.270437
        ]
      },
      "id": "node/347323232"
    },
    {
      "type": "Feature",
      "properties": {
        "@id": "node/347323242",
        "addr:street": "Mirigama Rd",
        "name": "Ambepussa Railway Station",
        "public_transport": "station",
        "railway": "station"
      },
      "geometry": {
        "type": "Point",
        "coordinates": [
          80.1693049,
          7.2559962
        ]
      },
      "id": "node/347323242"
    },
    {
      "type": "Feature",
      "properties": {
        "@id": "node/347323250",
        "name": "Botale",
        "public_transport": "station",
        "railway": "station"
      },
      "geometry": {
        "type": "Point",
        "coordinates": [
          80.1531824,
          7.2565981
        ]
      },
      "id": "node/347323250"
    },
    {
      "type": "Feature",
      "properties": {
        "@id": "node/347323315",
        "name": "Batuwatta",
        "railway": "station"
      },
      "geometry": {
        "type": "Point",
        "coordinates": [
          79.9372147,
          7.0551005
        ]
      },
      "id": "node/347323315"
    },
    {
      "type": "Feature",
      "properties": {
        "@id": "node/408503714",
        "aeroway": "aerodrome",
        "closest_town": "Kalutara, Sri Lanka",
        "ele": "3",
        "iata": "KTY",
        "icao": "VCCN",
        "landuse": "military",
        "military": "airfield",
        "name": "Katukurunda Airport",
        "operator": "Sri Lanka Air Force",
        "size": "small",
        "source": "wikipedia",
        "wikidata": "Q7390735",
        "wikipedia": "en:Katukurunda Airport"
      },
      "geometry": {
        "type": "Point",
        "coordinates": [
          79.9775,
          6.5521
        ]
      },
      "id": "node/408503714"
    },
    {
      "type": "Feature",
      "properties": {
        "@id": "node/445281683",
        "amenity": "bus_station",
        "name": "Nabada Bus Station"
      },
      "geometry": {
        "type": "Point",
        "coordinates": [
          80.0880832,
          6.5929746
        ]
      },
      "id": "node/445281683"
    },
    {
      "type": "Feature",
      "properties": {
        "@id": "node/543871335",
        "amenity": "bus_station",
        "bus": "yes",
        "name": "SLTB Bus Station",
        "public_transport": "station"
      },
      "geometry": {
        "type": "Point",
        "coordinates": [
          79.9080546,
          6.7144935
        ]
      },
      "id": "node/543871335"
    },
    {
      "type": "Feature",
      "properties": {
        "@id": "node/599713337",
        "addr:city": "Homagama",
        "addr:street": "High Level Road",
        "amenity": "bus_station",
        "bus": "yes",
        "name": "Homagama Central Bus Stand",
        "public_transport": "station",
        "wheelchair": "yes"
      },
      "geometry": {
        "type": "Point",
        "coordinates": [
          80.0020131,
          6.8412668
        ]
      },
      "id": "node/599713337"
    },
    {
      "type": "Feature",
      "properties": {
        "@id": "node/618555940",
        "amenity": "parking"
      },
      "geometry": {
        "type": "Point",
        "coordinates": [
          79.8956171,
          6.9091492
        ]
      },
      "id": "node/618555940"
    },
    {
      "type": "Feature",
      "properties": {
        "@id": "node/618695203",
        "aeroway": "aerodrome",
        "icao": "VCCH",
        "landuse": "military",
        "military": "airfield",
        "name": "SLAF Hingurakgoda",
        "name:en": "SLAF Hingurakgoda",
        "phone": "+94 27 2246063",
        "size": "small",
        "website": "https://www.airforce.lk/pages.php?pages=hingurakgoda"
      },
      "geometry": {
        "type": "Point",
        "coordinates": [
          80.97872,
          8.0509691
        ]
      },
      "id": "node/618695203"
    },
    {
      "type": "Feature",
      "properties": {
        "@id": "node/619234325",
        "name": "Dematagoda",
        "public_transport": "station",
        "railway": "station"
      },
      "geometry": {
        "type": "Point",
        "coordinates": [
          79.8790153,
          6.937547
        ]
      },
      "id": "node/619234325"
    },
    {
      "type": "Feature",
      "properties": {
        "@id": "node/620382899",
        "amenity": "parking"
      },
      "geometry": {
        "type": "Point",
        "coordinates": [
          79.851339,
          6.9112346
        ]
      },
      "id": "node/620382899"
    },
    {
      "type": "Feature",
      "properties": {
        "@id": "node/620383454",
        "access": "customers",
        "amenity": "parking",
        "fee": "yes",
        "layer": "-1",
        "operator": "Majestic City Shopping Mall",
        "operator:type": "business",
        "parking": "underground",
        "payment:cash": "yes",
        "surface": "concrete"
      },
      "geometry": {
        "type": "Point",
        "coordinates": [
          79.8543996,
          6.8936647
        ]
      },
      "id": "node/620383454"
    },
    {
      "type": "Feature",
      "properties": {
        "@id": "node/621919946",
        "amenity": "parking"
      },
      "geometry": {
        "type": "Point",
        "coordinates": [
          79.8632128,
          6.8335607
        ]
      },
      "id": "node/621919946"
    },
    {
      "type": "Feature",
      "properties": {
        "@id": "node/625772795",
        "amenity": "parking"
      },
      "geometry": {
        "type": "Point",
        "coordinates": [
          79.850014,
          6.9198806
        ]
      },
      "id": "node/625772795"
    },
    {
      "type": "Feature",
      "properties": {
        "@id": "node/625772852",
        "amenity": "parking",
        "parking": "surface"
      },
      "geometry": {
        "type": "Point",
        "coordinates": [
          79.8640877,
          6.9169849
        ]
      },
      "id": "node/625772852"
    },
    {
      "type": "Feature",
      "properties": {
        "@id": "node/625781654",
        "amenity": "parking"
      },
      "geometry": {
        "type": "Point",
        "coordinates": [
          79.8571245,
          6.9204797
        ]
      },
      "id": "node/625781654"
    },
    {
      "type": "Feature",
      "properties": {
        "@id": "node/626491642",
        "access": "customers",
        "amenity": "parking",
        "fee": "yes",
        "name": "Asiri Surgical Hospital Car Park",
        "parking": "multi-storey"
      },
      "geometry": {
        "type": "Point",
        "coordinates": [
          79.8802268,
          6.8946384
        ]
      },
      "id": "node/626491642"
    },
    {
      "type": "Feature",
      "properties": {
        "@id": "node/651703025",
        "amenity": "parking",
        "capacity": "1000",
        "name": "Chalmer's Granary Parking",
        "park_ride": "yes"
      },
      "geometry": {
        "type": "Point",
        "coordinates": [
          79.8487713,
          6.9366777
        ]
      },
      "id": "node/651703025"
    },
    {
      "type": "Feature",
      "properties": {
        "@id": "node/653109308",
        "amenity": "parking"
      },
      "geometry": {
        "type": "Point",
        "coordinates": [
          79.8573358,
          6.9144755
        ]
      },
      "id": "node/653109308"
    },
    {
      "type": "Feature",
      "properties": {
        "@id": "node/653113058",
        "amenity": "parking"
      },
      "geometry": {
        "type": "Point",
        "coordinates": [
          79.8632875,
          6.9210804
        ]
      },
      "id": "node/653113058"
    },
    {
      "type": "Feature",
      "properties": {
        "@id": "node/654743924",
        "amenity": "parking"
      },
      "geometry": {
        "type": "Point",
        "coordinates": [
          79.8538363,
          6.9201059
        ]
      },
      "id": "node/654743924"
    },
    {
      "type": "Feature",
      "properties": {
        "@id": "node/662913149",
        "amenity": "parking"
      },
      "geometry": {
        "type": "Point",
        "coordinates": [
          79.8632008,
          6.9294279
        ]
      },
      "id": "node/662913149"
    },
    {
      "type": "Feature",
      "properties": {
        "@id": "node/666892346",
        "amenity": "parking"
      },
      "geometry": {
        "type": "Point",
        "coordinates": [
          79.8467216,
          6.917104
        ]
      },
      "id": "node/666892346"
    },
    {
      "type": "Feature",
      "properties": {
        "@id": "node/679004904",
        "amenity": "parking"
      },
      "geometry": {
        "type": "Point",
        "coordinates": [
          79.8692131,
          6.9132624
        ]
      },
      "id": "node/679004904"
    },
    {
      "type": "Feature",
      "properties": {
        "@id": "node/682685492",
        "amenity": "parking"
      },
      "geometry": {
        "type": "Point",
        "coordinates": [
          79.8525515,
          6.9394712
        ]
      },
      "id": "node/682685492"
    },
    {
      "type": "Feature",
      "properties": {
        "@id": "node/766428148",
        "amenity": "parking",
        "name": "CMC Car Park"
      },
      "geometry": {
        "type": "Point",
        "coordinates": [
          79.8709165,
          6.9013179
        ]
      },
      "id": "node/766428148"
    },
    {
      "type": "Feature",
      "properties": {
        "@id": "node/892780206",
        "alt:MSL": "1464",
        "name": "Great Western",
        "railway": "station",
        "wikipedia": "en:Great Western railway station"
      },
      "geometry": {
        "type": "Point",
        "coordinates": [
          80.6891016,
          6.9572412
        ]
      },
      "id": "node/892780206"
    },
    {
      "type": "Feature",
      "properties": {
        "@id": "node/896200096",
        "amenity": "parking"
      },
      "geometry": {
        "type": "Point",
        "coordinates": [
          80.7548619,
          7.9518845
        ]
      },
      "id": "node/896200096"
    },
    {
      "type": "Feature",
      "properties": {
        "@id": "node/896753436",
        "amenity": "parking"
      },
      "geometry": {
        "type": "Point",
        "coordinates": [
          80.668002,
          7.899828
        ]
      },
      "id": "node/896753436"
    },
    {
      "type": "Feature",
      "properties": {
        "@id": "node/897870746",
        "name": "Talawakele",
        "railway": "station"
      },
      "geometry": {
        "type": "Point",
        "coordinates": [
          80.6609908,
          6.9400481
        ]
      },
      "id": "node/897870746"
    },
    {
      "type": "Feature",
      "properties": {
        "@id": "node/969652000",
        "amenity": "parking",
        "name": "Resort Parking"
      },
      "geometry": {
        "type": "Point",
        "coordinates": [
          80.2343126,
          6.5827731
        ]
      },
      "id": "node/969652000"
    },
    {
      "type": "Feature",
      "properties": {
        "@id": "node/1128186650",
        "amenity": "bus_station",
        "name": "Padukka Bus Station"
      },
      "geometry": {
        "type": "Point",
        "coordinates": [
          80.0907678,
          6.8417931
        ]
      },
      "id": "node/1128186650"
    },
    {
      "type": "Feature",
      "properties": {
        "@id": "node/1128187926",
        "name": "Cotta Road",
        "public_transport": "station",
        "railway": "station"
      },
      "geometry": {
        "type": "Point",
        "coordinates": [
          79.8845224,
          6.9133542
        ]
      },
      "id": "node/1128187926"
    },
    {
      "type": "Feature",
      "properties": {
        "@id": "node/1128188042",
        "name": "Kirulapona",
        "public_transport": "station",
        "railway": "station"
      },
      "geometry": {
        "type": "Point",
        "coordinates": [
          79.8828978,
          6.8830467
        ]
      },
      "id": "node/1128188042"
    },
    {
      "type": "Feature",
      "properties": {
        "@id": "node/1128188069",
        "name": "Nawinna",
        "public_transport": "station",
        "railway": "station"
      },
      "geometry": {
        "type": "Point",
        "coordinates": [
          79.9178611,
          6.8528888
        ]
      },
      "id": "node/1128188069"
    },
    {
      "type": "Feature",
      "properties": {
        "@id": "node/1128188513",
        "name": "Avissawella",
        "railway": "station"
      },
      "geometry": {
        "type": "Point",
        "coordinates": [
          80.2070547,
          6.954549
        ]
      },
      "id": "node/1128188513"
    },
    {
      "type": "Feature",
      "properties": {
        "@id": "node/1128190754",
        "name": "Narahenpita",
        "public_transport": "station",
        "railway": "station",
        "wheelchair": "no"
      },
      "geometry": {
        "type": "Point",
        "coordinates": [
          79.8780613,
          6.8969122
        ]
      },
      "id": "node/1128190754"
    },
    {
      "type": "Feature",
      "properties": {
        "@id": "node/1128191571",
        "addr:city": "Kosgama",
        "addr:postcode": "10730",
        "addr:street": "High Level Road",
        "internet_access": "no",
        "name": "Kosgama",
        "network": "National Railway Network",
        "public_transport": "station",
        "railway": "station",
        "train": "yes"
      },
      "geometry": {
        "type": "Point",
        "coordinates": [
          80.1372925,
          6.9406031
        ]
      },
      "id": "node/1128191571"
    },
    {
      "type": "Feature",
      "properties": {
        "@id": "node/1128191687",
        "name": "Waga",
        "railway": "station"
      },
      "geometry": {
        "type": "Point",
        "coordinates": [
          80.1276619,
          6.9013533
        ]
      },
      "id": "node/1128191687"
    },
    {
      "type": "Feature",
      "properties": {
        "@id": "node/1128192639",
        "name": "Udahamulla",
        "public_transport": "station",
        "railway": "station"
      },
      "geometry": {
        "type": "Point",
        "coordinates": [
          79.9087271,
          6.8622118
        ]
      },
      "id": "node/1128192639"
    },
    {
      "type": "Feature",
      "properties": {
        "@id": "node/1128193060",
        "name": "Padukka",
        "railway": "station"
      },
      "geometry": {
        "type": "Point",
        "coordinates": [
          80.0911536,
          6.8427474
        ]
      },
      "id": "node/1128193060"
    },
    {
      "type": "Feature",
      "properties": {
        "@id": "node/1128194191",
        "name": "Baseline Road",
        "public_transport": "station",
        "railway": "station"
      },
      "geometry": {
        "type": "Point",
        "coordinates": [
          79.8785882,
          6.926363
        ]
      },
      "id": "node/1128194191"
    },
    {
      "type": "Feature",
      "properties": {
        "@id": "node/1137448708",
        "name": "Chilaw",
        "railway": "station"
      },
      "geometry": {
        "type": "Point",
        "coordinates": [
          79.7909316,
          7.5757856
        ]
      },
      "id": "node/1137448708"
    },
    {
      "type": "Feature",
      "properties": {
        "@id": "node/1137449047",
        "name": "Manuwangama",
        "railway": "station"
      },
      "geometry": {
        "type": "Point",
        "coordinates": [
          79.8274738,
          7.6006132
        ]
      },
      "id": "node/1137449047"
    },
    {
      "type": "Feature",
      "properties": {
        "@id": "node/1137449199",
        "name": "Kiriyankalli",
        "railway": "station"
      },
      "geometry": {
        "type": "Point",
        "coordinates": [
          79.8282517,
          7.7571732
        ]
      },
      "id": "node/1137449199"
    },
    {
      "type": "Feature",
      "properties": {
        "@id": "node/1137449334",
        "name": "Walahapitiya",
        "railway": "station"
      },
      "geometry": {
        "type": "Point",
        "coordinates": [
          79.8591858,
          7.439463
        ]
      },
      "id": "node/1137449334"
    },
    {
      "type": "Feature",
      "properties": {
        "@id": "node/1137449404",
        "name": "Kudawewa",
        "railway": "station"
      },
      "geometry": {
        "type": "Point",
        "coordinates": [
          79.8530119,
          7.4621812
        ]
      },
      "id": "node/1137449404"
    },
    {
      "type": "Feature",
      "properties": {
        "@id": "node/1137449524",
        "name": "Kakkapalliya",
        "railway": "station"
      },
      "geometry": {
        "type": "Point",
        "coordinates": [
          79.8227037,
          7.5328175
        ]
      },
      "id": "node/1137449524"
    },
    {
      "type": "Feature",
      "properties": {
        "@id": "node/1137449691",
        "name": "Mundalama",
        "railway": "station"
      },
      "geometry": {
        "type": "Point",
        "coordinates": [
          79.8256822,
          7.7975461
        ]
      },
      "id": "node/1137449691"
    },
    {
      "type": "Feature",
      "properties": {
        "@id": "node/1137449694",
        "name": "Bangadeniya",
        "railway": "station"
      },
      "geometry": {
        "type": "Point",
        "coordinates": [
          79.8286013,
          7.6272671
        ]
      },
      "id": "node/1137449694"
    },
    {
      "type": "Feature",
      "properties": {
        "@id": "node/1138324384",
        "amenity": "parking"
      },
      "geometry": {
        "type": "Point",
        "coordinates": [
          79.9600645,
          6.5901049
        ]
      },
      "id": "node/1138324384"
    },
    {
      "type": "Feature",
      "properties": {
        "@id": "node/1138324718",
        "name": "Pinwatta",
        "network": "Coastal Line",
        "operator": "Sri Lanka Railways",
        "public_transport": "station",
        "railway": "station",
        "train": "yes"
      },
      "geometry": {
        "type": "Point",
        "coordinates": [
          79.9159943,
          6.6859877
        ]
      },
      "id": "node/1138324718"
    },
    {
      "type": "Feature",
      "properties": {
        "@id": "node/1138324992",
        "name": "Katukurunda",
        "railway": "station"
      },
      "geometry": {
        "type": "Point",
        "coordinates": [
          79.9661171,
          6.5601254
        ]
      },
      "id": "node/1138324992"
    },
    {
      "type": "Feature",
      "properties": {
        "@id": "node/1138325722",
        "amenity": "bus_station",
        "bus": "yes",
        "name": "Moratuwa Terminal",
        "public_transport": "station"
      },
      "geometry": {
        "type": "Point",
        "coordinates": [
          79.8820469,
          6.7748233
        ]
      },
      "id": "node/1138325722"
    },
    {
      "type": "Feature",
      "properties": {
        "@id": "node/1138479649",
        "name": "Induruwa",
        "railway": "station"
      },
      "geometry": {
        "type": "Point",
        "coordinates": [
          80.0086384,
          6.3873819
        ]
      },
      "id": "node/1138479649"
    },
    {
      "type": "Feature",
      "properties": {
        "@id": "node/1138479797",
        "name": "Mahainduruwa",
        "railway": "station"
      },
      "geometry": {
        "type": "Point",
        "coordinates": [
          80.0139361,
          6.3643888
        ]
      },
      "id": "node/1138479797"
    },
    {
      "type": "Feature",
      "properties": {
        "@id": "node/1138479999",
        "name": "Maggona",
        "railway": "station"
      },
      "geometry": {
        "type": "Point",
        "coordinates": [
          79.9813658,
          6.5048876
        ]
      },
      "id": "node/1138479999"
    },
    {
      "type": "Feature",
      "properties": {
        "@id": "node/1138480165",
        "name": "Kandegoda",
        "public_transport": "station",
        "railway": "station"
      },
      "geometry": {
        "type": "Point",
        "coordinates": [
          80.0529169,
          6.2501907
        ]
      },
      "id": "node/1138480165"
    },
    {
      "type": "Feature",
      "properties": {
        "@id": "node/1138480606",
        "name": "Beruwala",
        "public_transport": "station",
        "railway": "station"
      },
      "geometry": {
        "type": "Point",
        "coordinates": [
          79.983632,
          6.4769437
        ]
      },
      "id": "node/1138480606"
    },
    {
      "type": "Feature",
      "properties": {
        "@id": "node/1138481003",
        "name": "Payagala North",
        "railway": "station"
      },
      "geometry": {
        "type": "Point",
        "coordinates": [
          79.9750435,
          6.5315528
        ]
      },
      "id": "node/1138481003"
    },
    {
      "type": "Feature",
      "properties": {
        "@id": "node/1138562255",
        "name": "Akurala",
        "railway": "station"
      },
      "geometry": {
        "type": "Point",
        "coordinates": [
          80.0647968,
          6.1920745
        ]
      },
      "id": "node/1138562255"
    },
    {
      "type": "Feature",
      "properties": {
        "@id": "node/1138577561",
        "name": "Rathgama",
        "railway": "station"
      },
      "geometry": {
        "type": "Point",
        "coordinates": [
          80.1401109,
          6.09335
        ]
      },
      "id": "node/1138577561"
    },
    {
      "type": "Feature",
      "properties": {
        "@id": "node/1139209103",
        "name": "Telwatte",
        "railway": "station"
      },
      "geometry": {
        "type": "Point",
        "coordinates": [
          80.0888763,
          6.169066
        ]
      },
      "id": "node/1139209103"
    },
    {
      "type": "Feature",
      "properties": {
        "@id": "node/1139248175",
        "name": "Unawatuna",
        "railway": "station"
      },
      "geometry": {
        "type": "Point",
        "coordinates": [
          80.2492172,
          6.0220651
        ]
      },
      "id": "node/1139248175"
    },
    {
      "type": "Feature",
      "properties": {
        "@id": "node/1139279942",
        "name": "Bulugahagoda",
        "railway": "station"
      },
      "geometry": {
        "type": "Point",
        "coordinates": [
          79.9454477,
          7.0655794
        ]
      },
      "id": "node/1139279942"
    },
    {
      "type": "Feature",
      "properties": {
        "@id": "node/1139318218",
        "amenity": "bus_station",
        "bus": "yes",
        "name": "Veyangoda Bus Station",
        "public_transport": "station"
      },
      "geometry": {
        "type": "Point",
        "coordinates": [
          80.0577355,
          7.1531545
        ]
      },
      "id": "node/1139318218"
    },
    {
      "type": "Feature",
      "properties": {
        "@id": "node/1140291200",
        "amenity": "bus_station",
        "bus": "yes",
        "name": "Mirigama",
        "public_transport": "station"
      },
      "geometry": {
        "type": "Point",
        "coordinates": [
          80.127163,
          7.2428859
        ]
      },
      "id": "node/1140291200"
    },
    {
      "type": "Feature",
      "properties": {
        "@id": "node/1140291390",
        "name": "Polgahawela Junction",
        "public_transport": "station",
        "railway": "station",
        "train": "yes",
        "wikidata": "Q48733676"
      },
      "geometry": {
        "type": "Point",
        "coordinates": [
          80.3011647,
          7.3307027
        ]
      },
      "id": "node/1140291390"
    },
    {
      "type": "Feature",
      "properties": {
        "@id": "node/1140291626",
        "name": "Wilwatta",
        "public_transport": "station",
        "railway": "station"
      },
      "geometry": {
        "type": "Point",
        "coordinates": [
          80.1354324,
          7.2563223
        ]
      },
      "id": "node/1140291626"
    },
    {
      "type": "Feature",
      "properties": {
        "@id": "node/1140291685",
        "name": "Mirigama",
        "public_transport": "station",
        "railway": "station"
      },
      "geometry": {
        "type": "Point",
        "coordinates": [
          80.1265584,
          7.2425912
        ]
      },
      "id": "node/1140291685"
    },
    {
      "type": "Feature",
      "properties": {
        "@id": "node/1140291692",
        "addr:city": "Alawwa",
        "ele": "63",
        "name": "Alawwa",
        "operator": "SLR",
        "phone": "037-227 81 71",
        "railway": "station",
        "start_date": "1866",
        "wikidata": "Q38251714"
      },
      "geometry": {
        "type": "Point",
        "coordinates": [
          80.2386365,
          7.2934242
        ]
      },
      "id": "node/1140291692"
    },
    {
      "type": "Feature",
      "properties": {
        "@id": "node/1143313572",
        "name": "Hiriyala",
        "railway": "station"
      },
      "geometry": {
        "type": "Point",
        "coordinates": [
          80.3397981,
          7.6975804
        ]
      },
      "id": "node/1143313572"
    },
    {
      "type": "Feature",
      "properties": {
        "@id": "node/1143313787",
        "name": "Ambanpola",
        "public_transport": "station",
        "railway": "station"
      },
      "geometry": {
        "type": "Point",
        "coordinates": [
          80.2461079,
          7.9188843
        ]
      },
      "id": "node/1143313787"
    },
    {
      "type": "Feature",
      "properties": {
        "@id": "node/1143313912",
        "name": "Muttetugala",
        "public_transport": "station",
        "railway": "station"
      },
      "geometry": {
        "type": "Point",
        "coordinates": [
          80.3791226,
          7.4956732
        ]
      },
      "id": "node/1143313912"
    },
    {
      "type": "Feature",
      "properties": {
        "@id": "node/1143313922",
        "name": "Srawasthipura",
        "public_transport": "station",
        "railway": "station"
      },
      "geometry": {
        "type": "Point",
        "coordinates": [
          80.3769783,
          8.2987964
        ]
      },
      "id": "node/1143313922"
    },
    {
      "type": "Feature",
      "properties": {
        "@id": "node/1143314135",
        "name": "Nailiya",
        "railway": "station"
      },
      "geometry": {
        "type": "Point",
        "coordinates": [
          80.3587223,
          7.449891
        ]
      },
      "id": "node/1143314135"
    },
    {
      "type": "Feature",
      "properties": {
        "@id": "node/1143314167",
        "name": "Maho Junction",
        "public_transport": "station",
        "railway": "station",
        "wikidata": "Q38251592"
      },
      "geometry": {
        "type": "Point",
        "coordinates": [
          80.2750922,
          7.8231561
        ]
      },
      "id": "node/1143314167"
    },
    {
      "type": "Feature",
      "properties": {
        "@id": "node/1143314565",
        "name": "Talawa",
        "railway": "station"
      },
      "geometry": {
        "type": "Point",
        "coordinates": [
          80.348274,
          8.231752
        ]
      },
      "id": "node/1143314565"
    },
    {
      "type": "Feature",
      "properties": {
        "@id": "node/1143314681",
        "name": "Thambuttegama",
        "railway": "station"
      },
      "geometry": {
        "type": "Point",
        "coordinates": [
          80.3038834,
          8.1543184
        ]
      },
      "id": "node/1143314681"
    },
    {
      "type": "Feature",
      "properties": {
        "@id": "node/1143315265",
        "addr:city": "Kurunegala",
        "addr:street": "Pothuhera - Wadakada Road",
        "is_in:country": "Sri Lanka",
        "name": "Pothuhera",
        "public_transport": "station",
        "railway": "station"
      },
      "geometry": {
        "type": "Point",
        "coordinates": [
          80.3274809,
          7.4198455
        ]
      },
      "id": "node/1143315265"
    },
    {
      "type": "Feature",
      "properties": {
        "@id": "node/1143315442",
        "name": "Thalawattegedara",
        "railway": "station"
      },
      "geometry": {
        "type": "Point",
        "coordinates": [
          80.3016136,
          7.3878803
        ]
      },
      "id": "node/1143315442"
    },
    {
      "type": "Feature",
      "properties": {
        "@id": "node/1144853746",
        "name": "Mihintale",
        "note": "Only special trains on Poson Festival in June",
        "railway": "station"
      },
      "geometry": {
        "type": "Point",
        "coordinates": [
          80.5016942,
          8.3586214
        ]
      },
      "id": "node/1144853746"
    },
    {
      "type": "Feature",
      "properties": {
        "@id": "node/1146140491",
        "name": "Thandikulam",
        "public_transport": "station",
        "railway": "station",
        "wikidata": "Q7710212"
      },
      "geometry": {
        "type": "Point",
        "coordinates": [
          80.4850221,
          8.7782563
        ]
      },
      "id": "node/1146140491"
    },
    {
      "type": "Feature",
      "properties": {
        "@id": "node/1146140887",
        "addr:city": "Parasangaswewa",
        "name": "Parasangaswewa Railway Station",
        "railway": "station"
      },
      "geometry": {
        "type": "Point",
        "coordinates": [
          80.4315165,
          8.4453692
        ]
      },
      "id": "node/1146140887"
    },
    {
      "type": "Feature",
      "properties": {
        "@id": "node/1146141350",
        "name": "Medawachchiya",
        "railway": "station"
      },
      "geometry": {
        "type": "Point",
        "coordinates": [
          80.4581661,
          8.5545098
        ]
      },
      "id": "node/1146141350"
    },
    {
      "type": "Feature",
      "properties": {
        "@id": "node/1146591688",
        "disused": "yes",
        "name": "Murikandi-Kokavil",
        "railway": "station"
      },
      "geometry": {
        "type": "Point",
        "coordinates": [
          80.4175742,
          9.2063495
        ]
      },
      "id": "node/1146591688"
    },
    {
      "type": "Feature",
      "properties": {
        "@id": "node/1146591924",
        "disused": "yes",
        "name": "Ariviyal Nagar",
        "name:si": "අරිවියල් නගර්",
        "name:ta": "அறிவியல் நகர்",
        "railway": "station",
        "source": "https://www.facebook.com/tech.jfn.ac.lk/posts/557095184757279?__xts__[0]=68.ARDd-rTFwmLnY_i_EEQd77zldUFsxPN2zsgioPh2-NGJ5hc5voAuP2dXuHs4kpBxpPm88b342jkGF9oYIvmfUTf2TsaKxKmO5Ard8tC0KZvCM6pI0im9UFo5iv3zmkLTeona9ekHRYSgOFhf27F0oM8eW8w8cY1EJx1CWqnPWcvQ0EuWXcW"
      },
      "geometry": {
        "type": "Point",
        "coordinates": [
          80.4076622,
          9.3187473
        ]
      },
      "id": "node/1146591924"
    },
    {
      "type": "Feature",
      "properties": {
        "@id": "node/1148494560",
        "name": "Meesalai",
        "public_transport": "station",
        "railway": "station",
        "train": "yes"
      },
      "geometry": {
        "type": "Point",
        "coordinates": [
          80.1889621,
          9.6735961
        ]
      },
      "id": "node/1148494560"
    },
    {
      "type": "Feature",
      "properties": {
        "@id": "node/1148494958",
        "name": "Elephant Pass",
        "name:ta": "ஆனையிறவு",
        "railway": "station"
      },
      "geometry": {
        "type": "Point",
        "coordinates": [
          80.4058641,
          9.5023899
        ]
      },
      "id": "node/1148494958"
    },
    {
      "type": "Feature",
      "properties": {
        "@id": "node/1148494963",
        "name": "Chavakachcheri",
        "name:ta": "சாவகச்சேரி",
        "public_transport": "station",
        "railway": "station",
        "wikidata": "Q5088454"
      },
      "geometry": {
        "type": "Point",
        "coordinates": [
          80.1584591,
          9.6571317
        ]
      },
      "id": "node/1148494963"
    },
    {
      "type": "Feature",
      "properties": {
        "@id": "node/1148494997",
        "name": "Kodaikamam",
        "public_transport": "station",
        "railway": "station"
      },
      "geometry": {
        "type": "Point",
        "coordinates": [
          80.2193279,
          9.6813106
        ]
      },
      "id": "node/1148494997"
    },
    {
      "type": "Feature",
      "properties": {
        "@id": "node/1148495492",
        "name": "Eluthumadduval",
        "public_transport": "station",
        "railway": "station"
      },
      "geometry": {
        "type": "Point",
        "coordinates": [
          80.2656514,
          9.661095
        ]
      },
      "id": "node/1148495492"
    },
    {
      "type": "Feature",
      "properties": {
        "@id": "node/1148496040",
        "disused:railway": "station",
        "name": "Punkankulam",
        "public_transport": "station",
        "railway": "station"
      },
      "geometry": {
        "type": "Point",
        "coordinates": [
          80.0382833,
          9.6593033
        ]
      },
      "id": "node/1148496040"
    },
    {
      "type": "Feature",
      "properties": {
        "@id": "node/1164661692",
        "amenity": "parking"
      },
      "geometry": {
        "type": "Point",
        "coordinates": [
          80.6916326,
          7.4008489
        ]
      },
      "id": "node/1164661692"
    },
    {
      "type": "Feature",
      "properties": {
        "@id": "node/1168787880",
        "name": "Pesalai",
        "public_transport": "station",
        "railway": "station",
        "train": "yes"
      },
      "geometry": {
        "type": "Point",
        "coordinates": [
          79.8227946,
          9.0823153
        ]
      },
      "id": "node/1168787880"
    },
    {
      "type": "Feature",
      "properties": {
        "@id": "node/1168788044",
        "disused:railway": "station",
        "name": "Talaimannar",
        "name:ta": "தலைமன்னார்",
        "public_transport": "station",
        "railway": "station"
      },
      "geometry": {
        "type": "Point",
        "coordinates": [
          79.7298828,
          9.1033259
        ]
      },
      "id": "node/1168788044"
    },
    {
      "type": "Feature",
      "properties": {
        "@id": "node/1168900232",
        "name": "Kekirawa",
        "public_transport": "station",
        "railway": "station"
      },
      "geometry": {
        "type": "Point",
        "coordinates": [
          80.5814517,
          8.0584532
        ]
      },
      "id": "node/1168900232"
    },
    {
      "type": "Feature",
      "properties": {
        "@id": "node/1169246067",
        "name": "Habarana",
        "public_transport": "station",
        "railway": "station"
      },
      "geometry": {
        "type": "Point",
        "coordinates": [
          80.7695893,
          8.0573101
        ]
      },
      "id": "node/1169246067"
    },
    {
      "type": "Feature",
      "properties": {
        "@id": "node/1169246212",
        "name": "Galoya Junction Railway Station",
        "public_transport": "station",
        "railway": "station"
      },
      "geometry": {
        "type": "Point",
        "coordinates": [
          80.8658177,
          8.1377809
        ]
      },
      "id": "node/1169246212"
    },
    {
      "type": "Feature",
      "properties": {
        "@id": "node/1171391608",
        "name": "Agbopura",
        "railway": "station"
      },
      "geometry": {
        "type": "Point",
        "coordinates": [
          80.9796646,
          8.3267329
        ]
      },
      "id": "node/1171391608"
    },
    {
      "type": "Feature",
      "properties": {
        "@id": "node/1171391647",
        "name": "Kantale",
        "public_transport": "station",
        "railway": "station",
        "wikidata": "Q6365418"
      },
      "geometry": {
        "type": "Point",
        "coordinates": [
          81.0062054,
          8.3562353
        ]
      },
      "id": "node/1171391647"
    },
    {
      "type": "Feature",
      "properties": {
        "@id": "node/1172969921",
        "addr:street": "Station Road",
        "name": "Trincomalee",
        "name:ta": "திருகோணமலை புகையிரத நிலையம்",
        "phone": "+94262222271",
        "public_transport": "station",
        "railway": "station",
        "train": "yes",
        "wikidata": "Q7842325"
      },
      "geometry": {
        "type": "Point",
        "coordinates": [
          81.2262012,
          8.5844138
        ]
      },
      "id": "node/1172969921"
    },
    {
      "type": "Feature",
      "properties": {
        "@id": "node/1172970228",
        "alt_name": "China Bey",
        "name": "China Bay",
        "public_transport": "station",
        "railway": "station",
        "wikidata": "Q5099590"
      },
      "geometry": {
        "type": "Point",
        "coordinates": [
          81.1904552,
          8.556397
        ]
      },
      "id": "node/1172970228"
    },
    {
      "type": "Feature",
      "properties": {
        "@id": "node/1173326087",
        "name": "Polonnaruwa",
        "railway": "station"
      },
      "geometry": {
        "type": "Point",
        "coordinates": [
          81.0333406,
          7.9301686
        ]
      },
      "id": "node/1173326087"
    },
    {
      "type": "Feature",
      "properties": {
        "@id": "node/1173695483",
        "name": "Eravur",
        "railway": "station",
        "wikidata": "Q5385076"
      },
      "geometry": {
        "type": "Point",
        "coordinates": [
          81.6044408,
          7.7855975
        ]
      },
      "id": "node/1173695483"
    },
    {
      "type": "Feature",
      "properties": {
        "@id": "node/1173695522",
        "name": "Valaichchenai",
        "public_transport": "station",
        "railway": "station",
        "wikidata": "Q7909207"
      },
      "geometry": {
        "type": "Point",
        "coordinates": [
          81.5318574,
          7.9102735
        ]
      },
      "id": "node/1173695522"
    },
    {
      "type": "Feature",
      "properties": {
        "@id": "node/1175898701",
        "name": "Wattegama",
        "railway": "station"
      },
      "geometry": {
        "type": "Point",
        "coordinates": [
          80.6825578,
          7.350651
        ]
      },
      "id": "node/1175898701"
    },
    {
      "type": "Feature",
      "properties": {
        "@id": "node/1175898763",
        "name": "Ihalakotte",
        "railway": "station"
      },
      "geometry": {
        "type": "Point",
        "coordinates": [
          80.469259,
          7.2887
        ]
      },
      "id": "node/1175898763"
    },
    {
      "type": "Feature",
      "properties": {
        "@id": "node/1175900259",
        "name": "Ukuwela",
        "railway": "station"
      },
      "geometry": {
        "type": "Point",
        "coordinates": [
          80.6342993,
          7.4202246
        ]
      },
      "id": "node/1175900259"
    },
    {
      "type": "Feature",
      "properties": {
        "@id": "node/1175901018",
        "name": "Balana",
        "railway": "station"
      },
      "geometry": {
        "type": "Point",
        "coordinates": [
          80.489353,
          7.2667493
        ]
      },
      "id": "node/1175901018"
    },
    {
      "type": "Feature",
      "properties": {
        "@id": "node/1175901078",
        "name": "Matale",
        "railway": "station",
        "wikidata": "Q30621471"
      },
      "geometry": {
        "type": "Point",
        "coordinates": [
          80.6248632,
          7.467966
        ]
      },
      "id": "node/1175901078"
    },
    {
      "type": "Feature",
      "properties": {
        "@id": "node/1175901262",
        "name": "Pannaliya",
        "railway": "station"
      },
      "geometry": {
        "type": "Point",
        "coordinates": [
          80.3253063,
          7.3286016
        ]
      },
      "id": "node/1175901262"
    },
    {
      "type": "Feature",
      "properties": {
        "@id": "node/1175902881",
        "name": "Kadugannawa",
        "railway": "station"
      },
      "geometry": {
        "type": "Point",
        "coordinates": [
          80.5207503,
          7.2577827
        ]
      },
      "id": "node/1175902881"
    },
    {
      "type": "Feature",
      "properties": {
        "@id": "node/1175904246",
        "name": "Katugastota",
        "railway": "station"
      },
      "geometry": {
        "type": "Point",
        "coordinates": [
          80.6330084,
          7.3304562
        ]
      },
      "id": "node/1175904246"
    },
    {
      "type": "Feature",
      "properties": {
        "@id": "node/1176188739",
        "name": "Koshinna",
        "public_transport": "station",
        "railway": "station"
      },
      "geometry": {
        "type": "Point",
        "coordinates": [
          80.5950443,
          7.2335858
        ]
      },
      "id": "node/1176188739"
    },
    {
      "type": "Feature",
      "properties": {
        "@id": "node/1177231213",
        "name": "Ulapane",
        "railway": "station"
      },
      "geometry": {
        "type": "Point",
        "coordinates": [
          80.5597211,
          7.1082827
        ]
      },
      "id": "node/1177231213"
    },
    {
      "type": "Feature",
      "properties": {
        "@id": "node/1177512170",
        "name": "Galboda",
        "railway": "station"
      },
      "geometry": {
        "type": "Point",
        "coordinates": [
          80.5300581,
          6.9860278
        ]
      },
      "id": "node/1177512170"
    },
    {
      "type": "Feature",
      "properties": {
        "@id": "node/1177512252",
        "alt_name": "Rozella",
        "name": "Rozelle",
        "railway": "station"
      },
      "geometry": {
        "type": "Point",
        "coordinates": [
          80.5587202,
          6.9348701
        ]
      },
      "id": "node/1177512252"
    },
    {
      "type": "Feature",
      "properties": {
        "@id": "node/1177512876",
        "name": "Ihala Watawala",
        "railway": "station"
      },
      "geometry": {
        "type": "Point",
        "coordinates": [
          80.542167,
          6.9481148
        ]
      },
      "id": "node/1177512876"
    },
    {
      "type": "Feature",
      "properties": {
        "@id": "node/1177513749",
        "name": "Inguru Oya",
        "railway": "station"
      },
      "geometry": {
        "type": "Point",
        "coordinates": [
          80.5457206,
          7.018222
        ]
      },
      "id": "node/1177513749"
    },
    {
      "type": "Feature",
      "properties": {
        "@id": "node/1178458715",
        "amenity": "bus_station",
        "name": "Haputale Bus Station"
      },
      "geometry": {
        "type": "Point",
        "coordinates": [
          80.9603421,
          6.769155
        ]
      },
      "id": "node/1178458715"
    },
    {
      "type": "Feature",
      "properties": {
        "@id": "node/1178458796",
        "name": "Ohiya",
        "public_transport": "station",
        "railway": "station"
      },
      "geometry": {
        "type": "Point",
        "coordinates": [
          80.8430198,
          6.8177121
        ]
      },
      "id": "node/1178458796"
    },
    {
      "type": "Feature",
      "properties": {
        "@id": "node/1178458977",
        "name": "Idalgashinna",
        "railway": "station",
        "wikidata": "Q55614281",
        "wikipedia": "en:Idalgashinna railway station"
      },
      "geometry": {
        "type": "Point",
        "coordinates": [
          80.8968826,
          6.7793989
        ]
      },
      "id": "node/1178458977"
    },
    {
      "type": "Feature",
      "properties": {
        "@id": "node/1179884414",
        "name": "Hali-Ela",
        "public_transport": "station",
        "railway": "station"
      },
      "geometry": {
        "type": "Point",
        "coordinates": [
          81.0334492,
          6.9539582
        ]
      },
      "id": "node/1179884414"
    },
    {
      "type": "Feature",
      "properties": {
        "@id": "node/1179884454",
        "name": "Demodara",
        "public_transport": "station",
        "railway": "station",
        "wikidata": "Q25038814",
        "wikipedia": "en:Demodara railway station"
      },
      "geometry": {
        "type": "Point",
        "coordinates": [
          81.0627711,
          6.9029362
        ]
      },
      "id": "node/1179884454"
    },
    {
      "type": "Feature",
      "properties": {
        "@id": "node/1213039235",
        "amenity": "bus_station",
        "name": "Udatiyawala"
      },
      "geometry": {
        "type": "Point",
        "coordinates": [
          80.158704,
          6.5832231
        ]
      },
      "id": "node/1213039235"
    },
    {
      "type": "Feature",
      "properties": {
        "@id": "node/1213039419",
        "amenity": "bus_station",
        "name": "Pimbura Hospital Bus Stand"
      },
      "geometry": {
        "type": "Point",
        "coordinates": [
          80.1580212,
          6.5759408
        ]
      },
      "id": "node/1213039419"
    },
    {
      "type": "Feature",
      "properties": {
        "@id": "node/1222995632",
        "amenity": "bus_station",
        "wheelchair": "yes"
      },
      "geometry": {
        "type": "Point",
        "coordinates": [
          80.5225467,
          6.8254489
        ]
      },
      "id": "node/1222995632"
    },
    {
      "type": "Feature",
      "properties": {
        "@id": "node/1261082799",
        "amenity": "bus_station",
        "bus": "yes",
        "name": "Karagampitiya ",
        "public_transport": "station"
      },
      "geometry": {
        "type": "Point",
        "coordinates": [
          79.8719,
          6.8505585
        ]
      },
      "id": "node/1261082799"
    },
    {
      "type": "Feature",
      "properties": {
        "@id": "node/1278079656",
        "amenity": "parking",
        "parking": "street_side"
      },
      "geometry": {
        "type": "Point",
        "coordinates": [
          79.8613654,
          6.9118316
        ]
      },
      "id": "node/1278079656"
    },
    {
      "type": "Feature",
      "properties": {
        "@id": "node/1278079707",
        "amenity": "parking",
        "parking": "street_side"
      },
      "geometry": {
        "type": "Point",
        "coordinates": [
          79.8625607,
          6.9119253
        ]
      },
      "id": "node/1278079707"
    },
    {
      "type": "Feature",
      "properties": {
        "@id": "node/1282541156",
        "aeroway": "aerodrome",
        "iata": "KCT",
        "icao": "VCCK",
        "name": "Koggala Airport",
        "size": "small"
      },
      "geometry": {
        "type": "Point",
        "coordinates": [
          80.324249,
          5.9960687
        ]
      },
      "id": "node/1282541156"
    },
    {
      "type": "Feature",
      "properties": {
        "@id": "node/1370719823",
        "amenity": "parking"
      },
      "geometry": {
        "type": "Point",
        "coordinates": [
          79.9231475,
          7.0273948
        ]
      },
      "id": "node/1370719823"
    },
    {
      "type": "Feature",
      "properties": {
        "@id": "node/1400433846",
        "amenity": "bus_station",
        "check_date": "2022-12-08",
        "name": "Puttalam Bus Station"
      },
      "geometry": {
        "type": "Point",
        "coordinates": [
          79.8333513,
          8.0278817
        ]
      },
      "id": "node/1400433846"
    },
    {
      "type": "Feature",
      "properties": {
        "@id": "node/1409021993",
        "access": "customers",
        "amenity": "parking",
        "parking": "surface"
      },
      "geometry": {
        "type": "Point",
        "coordinates": [
          80.4038717,
          8.3482747
        ]
      },
      "id": "node/1409021993"
    },
    {
      "type": "Feature",
      "properties": {
        "@id": "node/1473127660",
        "railway": "station"
      },
      "geometry": {
        "type": "Point",
        "coordinates": [
          79.8590908,
          7.3615637
        ]
      },
      "id": "node/1473127660"
    },
    {
      "type": "Feature",
      "properties": {
        "@id": "node/1478555726",
        "amenity": "parking"
      },
      "geometry": {
        "type": "Point",
        "coordinates": [
          79.8860759,
          7.3026832
        ]
      },
      "id": "node/1478555726"
    },
    {
      "type": "Feature",
      "properties": {
        "@id": "node/1480054176",
        "amenity": "bus_station",
        "name": "Nattandiya"
      },
      "geometry": {
        "type": "Point",
        "coordinates": [
          79.8644902,
          7.4112619
        ]
      },
      "id": "node/1480054176"
    },
    {
      "type": "Feature",
      "properties": {
        "@id": "node/1490098934",
        "amenity": "parking",
        "capacity": "20",
        "covered": "no",
        "fee": "yes",
        "park_ride": "no",
        "parking": "surface",
        "surface": "ground"
      },
      "geometry": {
        "type": "Point",
        "coordinates": [
          80.061145,
          6.715354
        ]
      },
      "id": "node/1490098934"
    },
    {
      "type": "Feature",
      "properties": {
        "@id": "node/1523693980",
        "addr:city": "Maharagama",
        "amenity": "bus_station",
        "bus": "yes",
        "name": "CTB Depot",
        "public_transport": "station"
      },
      "geometry": {
        "type": "Point",
        "coordinates": [
          79.9239225,
          6.8433607
        ]
      },
      "id": "node/1523693980"
    },
    {
      "type": "Feature",
      "properties": {
        "@id": "node/1528663452",
        "amenity": "parking"
      },
      "geometry": {
        "type": "Point",
        "coordinates": [
          79.941432,
          6.8564785
        ]
      },
      "id": "node/1528663452"
    },
    {
      "type": "Feature",
      "properties": {
        "@id": "node/1529038304",
        "amenity": "bus_station",
        "name": "Yatiyana Bus Stand"
      },
      "geometry": {
        "type": "Point",
        "coordinates": [
          80.6007188,
          6.0248077
        ]
      },
      "id": "node/1529038304"
    },
    {
      "type": "Feature",
      "properties": {
        "@id": "node/1529039673",
        "amenity": "bus_station",
        "bus": "yes",
        "internet_access": "no",
        "name": "Puhulwella Bus Stand",
        "public_transport": "station"
      },
      "geometry": {
        "type": "Point",
        "coordinates": [
          80.6295154,
          6.0515944
        ]
      },
      "id": "node/1529039673"
    },
    {
      "type": "Feature",
      "properties": {
        "@id": "node/1529255531",
        "amenity": "parking",
        "parking": "street_side"
      },
      "geometry": {
        "type": "Point",
        "coordinates": [
          79.9242121,
          7.0290631
        ]
      },
      "id": "node/1529255531"
    },
    {
      "type": "Feature",
      "properties": {
        "@id": "node/1529276148",
        "amenity": "bus_station",
        "bus": "yes",
        "public_transport": "station"
      },
      "geometry": {
        "type": "Point",
        "coordinates": [
          79.926205,
          6.8456146
        ]
      },
      "id": "node/1529276148"
    },
    {
      "type": "Feature",
      "properties": {
        "@id": "node/1530580871",
        "amenity": "parking"
      },
      "geometry": {
        "type": "Point",
        "coordinates": [
          79.8758964,
          6.8664565
        ]
      },
      "id": "node/1530580871"
    },
    {
      "type": "Feature",
      "properties": {
        "@id": "node/1533913606",
        "amenity": "parking"
      },
      "geometry": {
        "type": "Point",
        "coordinates": [
          79.8664631,
          6.8469072
        ]
      },
      "id": "node/1533913606"
    },
    {
      "type": "Feature",
      "properties": {
        "@id": "node/1536701744",
        "amenity": "bus_station"
      },
      "geometry": {
        "type": "Point",
        "coordinates": [
          80.7344884,
          6.0476577
        ]
      },
      "id": "node/1536701744"
    },
    {
      "type": "Feature",
      "properties": {
        "@id": "node/1618805146",
        "access": "customers",
        "amenity": "parking",
        "operator": "Amal´s Restaurant",
        "parking": "surface"
      },
      "geometry": {
        "type": "Point",
        "coordinates": [
          80.0001563,
          6.4113344
        ]
      },
      "id": "node/1618805146"
    },
    {
      "type": "Feature",
      "properties": {
        "@id": "node/1619721081",
        "amenity": "bus_station",
        "bus": "yes",
        "public_transport": "station"
      },
      "geometry": {
        "type": "Point",
        "coordinates": [
          80.2130442,
          6.0547935
        ]
      },
      "id": "node/1619721081"
    },
    {
      "type": "Feature",
      "properties": {
        "@id": "node/1636578569",
        "amenity": "bus_station",
        "bus": "yes",
        "internet_access": "wlan",
        "name": "Baddegama Bus Station",
        "public_transport": "station"
      },
      "geometry": {
        "type": "Point",
        "coordinates": [
          80.1781078,
          6.1724823
        ]
      },
      "id": "node/1636578569"
    },
    {
      "type": "Feature",
      "properties": {
        "@id": "node/1662166663",
        "amenity": "bus_station",
        "bus": "yes",
        "name": "Maharagama Bus Stand",
        "public_transport": "station"
      },
      "geometry": {
        "type": "Point",
        "coordinates": [
          79.9256137,
          6.8481858
        ]
      },
      "id": "node/1662166663"
    },
    {
      "type": "Feature",
      "properties": {
        "@id": "node/1663854000",
        "amenity": "parking"
      },
      "geometry": {
        "type": "Point",
        "coordinates": [
          79.9270581,
          6.8466591
        ]
      },
      "id": "node/1663854000"
    },
    {
      "type": "Feature",
      "properties": {
        "@id": "node/1664611736",
        "amenity": "bus_station",
        "bus": "yes",
        "name": "Mount Lavinia Bus Stand",
        "public_transport": "station"
      },
      "geometry": {
        "type": "Point",
        "coordinates": [
          79.8672728,
          6.8330085
        ]
      },
      "id": "node/1664611736"
    },
    {
      "type": "Feature",
      "properties": {
        "@id": "node/1684345036",
        "amenity": "bus_station",
        "name": "Ampara Bus Station"
      },
      "geometry": {
        "type": "Point",
        "coordinates": [
          81.6731457,
          7.290358
        ]
      },
      "id": "node/1684345036"
    },
    {
      "type": "Feature",
      "properties": {
        "@id": "node/1685297495",
        "name": "Kumbalgama",
        "name:ru": "Кумбалгама",
        "railway": "station"
      },
      "geometry": {
        "type": "Point",
        "coordinates": [
          80.4097062,
          5.9636147
        ]
      },
      "id": "node/1685297495"
    },
    {
      "type": "Feature",
      "properties": {
        "@id": "node/1685576493",
        "name": "Midigama",
        "name:ru": "Мидигама",
        "public_transport": "station",
        "railway": "station"
      },
      "geometry": {
        "type": "Point",
        "coordinates": [
          80.3914881,
          5.9651656
        ]
      },
      "id": "node/1685576493"
    },
    {
      "type": "Feature",
      "properties": {
        "@id": "node/1692692898",
        "amenity": "parking"
      },
      "geometry": {
        "type": "Point",
        "coordinates": [
          79.9213724,
          6.8388835
        ]
      },
      "id": "node/1692692898"
    },
    {
      "type": "Feature",
      "properties": {
        "@id": "node/1723604078",
        "addr:city": "Rathnapura",
        "addr:street": "Bus Stand Road",
        "amenity": "bus_station",
        "bus": "yes",
        "internet_access": "wlan",
        "name": "Ratnapura Central Bus Stand",
        "public_transport": "station"
      },
      "geometry": {
        "type": "Point",
        "coordinates": [
          80.4021871,
          6.6835785
        ]
      },
      "id": "node/1723604078"
    },
    {
      "type": "Feature",
      "properties": {
        "@id": "node/1728255091",
        "alt_name": "Tampalakamam",
        "name": "Thampalakamam",
        "railway": "station",
        "wikidata": "Q16901458"
      },
      "geometry": {
        "type": "Point",
        "coordinates": [
          81.0953498,
          8.498339
        ]
      },
      "id": "node/1728255091"
    },
    {
      "type": "Feature",
      "properties": {
        "@id": "node/1728263431",
        "name": "Ganthalawa",
        "railway": "station"
      },
      "geometry": {
        "type": "Point",
        "coordinates": [
          81.036773,
          8.4165855
        ]
      },
      "id": "node/1728263431"
    },
    {
      "type": "Feature",
      "properties": {
        "@id": "node/1728263442",
        "name": "Mollipothana",
        "railway": "station"
      },
      "geometry": {
        "type": "Point",
        "coordinates": [
          81.0618736,
          8.4450308
        ]
      },
      "id": "node/1728263442"
    },
    {
      "type": "Feature",
      "properties": {
        "@id": "node/1728275640",
        "amenity": "bus_station",
        "name": "Horowpotana"
      },
      "geometry": {
        "type": "Point",
        "coordinates": [
          80.8317571,
          8.5489248
        ]
      },
      "id": "node/1728275640"
    },
    {
      "type": "Feature",
      "properties": {
        "@id": "node/1728286789",
        "name": "Ganewatte",
        "railway": "station"
      },
      "geometry": {
        "type": "Point",
        "coordinates": [
          80.3486525,
          7.6550184
        ]
      },
      "id": "node/1728286789"
    },
    {
      "type": "Feature",
      "properties": {
        "@id": "node/1728286790",
        "name": "Wellawa",
        "railway": "station"
      },
      "geometry": {
        "type": "Point",
        "coordinates": [
          80.3661793,
          7.5596275
        ]
      },
      "id": "node/1728286790"
    },
    {
      "type": "Feature",
      "properties": {
        "@id": "node/1728286792",
        "name": "Galgamuwa",
        "railway": "station"
      },
      "geometry": {
        "type": "Point",
        "coordinates": [
          80.2715285,
          8.0021635
        ]
      },
      "id": "node/1728286792"
    },
    {
      "type": "Feature",
      "properties": {
        "@id": "node/1728294289",
        "name": "Nagollagama",
        "public_transport": "station",
        "railway": "station"
      },
      "geometry": {
        "type": "Point",
        "coordinates": [
          80.314565,
          7.7538118
        ]
      },
      "id": "node/1728294289"
    },
    {
      "type": "Feature",
      "properties": {
        "@id": "node/1729350058",
        "addr:city": "Katharagama UP",
        "amenity": "parking",
        "name": "Ruhunu Maha Devalaya Car Park",
        "parking": "surface"
      },
      "geometry": {
        "type": "Point",
        "coordinates": [
          81.3341625,
          6.4141976
        ]
      },
      "id": "node/1729350058"
    },
    {
      "type": "Feature",
      "properties": {
        "@id": "node/1744023358",
        "addr:city": "Kataragama",
        "addr:street": "Tissa - Katharagama Road",
        "amenity": "bus_station",
        "bus": "yes",
        "name": "Katharagama Bus Station",
        "public_transport": "station"
      },
      "geometry": {
        "type": "Point",
        "coordinates": [
          81.3323745,
          6.4130142
        ]
      },
      "id": "node/1744023358"
    },
    {
      "type": "Feature",
      "properties": {
        "@id": "node/1744023360",
        "amenity": "bus_station",
        "name": "Katharagama Depot"
      },
      "geometry": {
        "type": "Point",
        "coordinates": [
          81.3427303,
          6.4160925
        ]
      },
      "id": "node/1744023360"
    },
    {
      "type": "Feature",
      "properties": {
        "@id": "node/1744470929",
        "amenity": "bus_station",
        "name": "Tissa Bus Stand"
      },
      "geometry": {
        "type": "Point",
        "coordinates": [
          81.2869799,
          6.2762454
        ]
      },
      "id": "node/1744470929"
    },
    {
      "type": "Feature",
      "properties": {
        "@id": "node/1788271745",
        "amenity": "bus_station"
      },
      "geometry": {
        "type": "Point",
        "coordinates": [
          80.046063,
          6.8440393
        ]
      },
      "id": "node/1788271745"
    },
    {
      "type": "Feature",
      "properties": {
        "@id": "node/1796683828",
        "amenity": "bus_station",
        "name": "Private Bus Stand",
        "wheelchair": "yes"
      },
      "geometry": {
        "type": "Point",
        "coordinates": [
          79.9889989,
          6.7140679
        ]
      },
      "id": "node/1796683828"
    },
    {
      "type": "Feature",
      "properties": {
        "@id": "node/1797836033",
        "amenity": "bus_station",
        "wheelchair": "yes"
      },
      "geometry": {
        "type": "Point",
        "coordinates": [
          80.1770031,
          6.7459634
        ]
      },
      "id": "node/1797836033"
    },
    {
      "type": "Feature",
      "properties": {
        "@id": "node/1807855778",
        "amenity": "bus_station",
        "name": "Bus Stand Ganemulla"
      },
      "geometry": {
        "type": "Point",
        "coordinates": [
          79.9611268,
          7.0662794
        ]
      },
      "id": "node/1807855778"
    },
    {
      "type": "Feature",
      "properties": {
        "@id": "node/1812140630",
        "amenity": "bus_station"
      },
      "geometry": {
        "type": "Point",
        "coordinates": [
          80.556541,
          5.9473799
        ]
      },
      "id": "node/1812140630"
    },
    {
      "type": "Feature",
      "properties": {
        "@id": "node/1814540626",
        "amenity": "bus_station",
        "bus": "yes",
        "name": "Hambantota Bus Stand",
        "public_transport": "station"
      },
      "geometry": {
        "type": "Point",
        "coordinates": [
          81.1257755,
          6.1255312
        ]
      },
      "id": "node/1814540626"
    },
    {
      "type": "Feature",
      "properties": {
        "@id": "node/1815548741",
        "amenity": "bus_station",
        "name": "166 Bus Station"
      },
      "geometry": {
        "type": "Point",
        "coordinates": [
          79.9270076,
          6.9241865
        ]
      },
      "id": "node/1815548741"
    },
    {
      "type": "Feature",
      "properties": {
        "@id": "node/1818697076",
        "amenity": "bus_station",
        "name": "Wellawaya Bus Stand"
      },
      "geometry": {
        "type": "Point",
        "coordinates": [
          81.1023813,
          6.7296084
        ]
      },
      "id": "node/1818697076"
    },
    {
      "type": "Feature",
      "properties": {
        "@id": "node/1818771788",
        "amenity": "bus_station",
        "bus": "yes",
        "name": "Diyatalawa Bus Station",
        "public_transport": "station"
      },
      "geometry": {
        "type": "Point",
        "coordinates": [
          80.9569572,
          6.8080968
        ]
      },
      "id": "node/1818771788"
    },
    {
      "type": "Feature",
      "properties": {
        "@id": "node/1821073284",
        "amenity": "bus_station",
        "name": "Welimada Bus Station"
      },
      "geometry": {
        "type": "Point",
        "coordinates": [
          80.9114117,
          6.9056221
        ]
      },
      "id": "node/1821073284"
    },
    {
      "type": "Feature",
      "properties": {
        "@id": "node/1822570038",
        "amenity": "parking",
        "is_in": "Kaluthara District;Western Province;Sri Lanka",
        "is_in:country": "Sri Lanka",
        "is_in:country_code": "LK",
        "is_in:district": "Kaluthara District",
        "is_in:province": "Western Province",
        "name": "Palathota",
        "parking": "multi-storey"
      },
      "geometry": {
        "type": "Point",
        "coordinates": [
          79.9699499,
          6.5934515
        ]
      },
      "id": "node/1822570038"
    },
    {
      "type": "Feature",
      "properties": {
        "@id": "node/1829358383",
        "amenity": "bus_station",
        "name": "Balangoda Main Bus Stand"
      },
      "geometry": {
        "type": "Point",
        "coordinates": [
          80.70156,
          6.6506211
        ]
      },
      "id": "node/1829358383"
    },
    {
      "type": "Feature",
      "properties": {
        "@id": "node/1830387320",
        "amenity": "bus_station",
        "name": "Hatton Private Bus Stand"
      },
      "geometry": {
        "type": "Point",
        "coordinates": [
          80.5988877,
          6.8893098
        ]
      },
      "id": "node/1830387320"
    },
    {
      "type": "Feature",
      "properties": {
        "@id": "node/1831954362",
        "amenity": "bus_station",
        "name": "Ethgala"
      },
      "geometry": {
        "type": "Point",
        "coordinates": [
          80.5681174,
          7.132673
        ]
      },
      "id": "node/1831954362"
    },
    {
      "type": "Feature",
      "properties": {
        "@id": "node/1838393505",
        "amenity": "parking",
        "name": "Star Dust",
        "park_ride": "yes"
      },
      "geometry": {
        "type": "Point",
        "coordinates": [
          79.850487,
          6.9064475
        ]
      },
      "id": "node/1838393505"
    },
    {
      "type": "Feature",
      "properties": {
        "@id": "node/1843534077",
        "amenity": "parking"
      },
      "geometry": {
        "type": "Point",
        "coordinates": [
          80.0186186,
          6.9239521
        ]
      },
      "id": "node/1843534077"
    },
    {
      "type": "Feature",
      "properties": {
        "@id": "node/1848020284",
        "amenity": "bus_station",
        "name": "Makandura"
      },
      "geometry": {
        "type": "Point",
        "coordinates": [
          79.9768432,
          7.3227673
        ]
      },
      "id": "node/1848020284"
    },
    {
      "type": "Feature",
      "properties": {
        "@id": "node/1855227914",
        "access": "customers",
        "amenity": "parking",
        "fee": "no",
        "layer": "-1",
        "name": "Orion City Car Park",
        "parking": "underground"
      },
      "geometry": {
        "type": "Point",
        "coordinates": [
          79.8800573,
          6.9409276
        ]
      },
      "id": "node/1855227914"
    },
    {
      "type": "Feature",
      "properties": {
        "@id": "node/1856812595",
        "amenity": "bus_station",
        "name": "Alawwa Central Bus Stand"
      },
      "geometry": {
        "type": "Point",
        "coordinates": [
          80.2374601,
          7.2960675
        ]
      },
      "id": "node/1856812595"
    },
    {
      "type": "Feature",
      "properties": {
        "@id": "node/1856813120",
        "name": "Girambe",
        "railway": "station"
      },
      "geometry": {
        "type": "Point",
        "coordinates": [
          80.3025304,
          7.3646496
        ]
      },
      "id": "node/1856813120"
    },
    {
      "type": "Feature",
      "properties": {
        "@id": "node/1862832376",
        "name": "Pinnawala",
        "railway": "station"
      },
      "geometry": {
        "type": "Point",
        "coordinates": [
          80.1173053,
          6.8693009
        ]
      },
      "id": "node/1862832376"
    },
    {
      "type": "Feature",
      "properties": {
        "@id": "node/1887862837",
        "amenity": "bus_station",
        "name": "Wennappuwa Depot",
        "wheelchair": "yes"
      },
      "geometry": {
        "type": "Point",
        "coordinates": [
          79.8451185,
          7.3271251
        ]
      },
      "id": "node/1887862837"
    },
    {
      "type": "Feature",
      "properties": {
        "@id": "node/1918165072",
        "amenity": "bus_station",
        "name": "Kotikawatta"
      },
      "geometry": {
        "type": "Point",
        "coordinates": [
          79.9165498,
          6.9360244
        ]
      },
      "id": "node/1918165072"
    },
    {
      "type": "Feature",
      "properties": {
        "@id": "node/1921371333",
        "amenity": "bus_station",
        "bus": "yes",
        "name": "Thalangama Depot",
        "public_transport": "station"
      },
      "geometry": {
        "type": "Point",
        "coordinates": [
          79.9261129,
          6.9067802
        ]
      },
      "id": "node/1921371333"
    },
    {
      "type": "Feature",
      "properties": {
        "@id": "node/1932061100",
        "amenity": "bus_station",
        "name": "Hakmana"
      },
      "geometry": {
        "type": "Point",
        "coordinates": [
          80.6436511,
          6.0825765
        ]
      },
      "id": "node/1932061100"
    },
    {
      "type": "Feature",
      "properties": {
        "@id": "node/1965377640",
        "amenity": "bus_station",
        "name": "Heel-Oya"
      },
      "geometry": {
        "type": "Point",
        "coordinates": [
          81.0255363,
          6.8438555
        ]
      },
      "id": "node/1965377640"
    },
    {
      "type": "Feature",
      "properties": {
        "@id": "node/1969470956",
        "amenity": "bus_station",
        "name": "Matugama Bus Depot"
      },
      "geometry": {
        "type": "Point",
        "coordinates": [
          80.1209449,
          6.5146783
        ]
      },
      "id": "node/1969470956"
    },
    {
      "type": "Feature",
      "properties": {
        "@id": "node/1974694465",
        "amenity": "bus_station",
        "name": "SLTB Bus Station"
      },
      "geometry": {
        "type": "Point",
        "coordinates": [
          80.9919204,
          7.3379987
        ]
      },
      "id": "node/1974694465"
    },
    {
      "type": "Feature",
      "properties": {
        "@id": "node/1974728792",
        "amenity": "bus_station",
        "name": "Dehiattakandiya Main Bus Stand"
      },
      "geometry": {
        "type": "Point",
        "coordinates": [
          81.0471451,
          7.6720099
        ]
      },
      "id": "node/1974728792"
    },
    {
      "type": "Feature",
      "properties": {
        "@id": "node/1980792528",
        "amenity": "bus_station",
        "name": "CTB Depot",
        "operator": "CTB"
      },
      "geometry": {
        "type": "Point",
        "coordinates": [
          80.1819705,
          6.054187
        ]
      },
      "id": "node/1980792528"
    },
    {
      "type": "Feature",
      "properties": {
        "@id": "node/1985244115",
        "amenity": "parking",
        "name": "Diyawannawa Car Park"
      },
      "geometry": {
        "type": "Point",
        "coordinates": [
          79.9342584,
          6.8718337
        ]
      },
      "id": "node/1985244115"
    },
    {
      "type": "Feature",
      "properties": {
        "@id": "node/2015144092",
        "access": "customers",
        "amenity": "parking",
        "fee": "no",
        "parking": "surface"
      },
      "geometry": {
        "type": "Point",
        "coordinates": [
          79.9011695,
          6.8626765
        ]
      },
      "id": "node/2015144092"
    },
    {
      "type": "Feature",
      "properties": {
        "@id": "node/2018509391",
        "amenity": "parking"
      },
      "geometry": {
        "type": "Point",
        "coordinates": [
          81.3244052,
          6.4219852
        ]
      },
      "id": "node/2018509391"
    },
    {
      "type": "Feature",
      "properties": {
        "@id": "node/2018509397",
        "amenity": "parking",
        "operator": "Katharagama Kiri Wehera Parking"
      },
      "geometry": {
        "type": "Point",
        "coordinates": [
          81.3249095,
          6.4222704
        ]
      },
      "id": "node/2018509397"
    },
    {
      "type": "Feature",
      "properties": {
        "@id": "node/2034260183",
        "amenity": "bus_station",
        "building": "garage",
        "bus": "yes",
        "name": "Meethotamulla",
        "public_transport": "station"
      },
      "geometry": {
        "type": "Point",
        "coordinates": [
          79.8885393,
          6.9358787
        ]
      },
      "id": "node/2034260183"
    },
    {
      "type": "Feature",
      "properties": {
        "@id": "node/2071095588",
        "amenity": "bus_station",
        "bus": "yes",
        "name": "Udahamulla Bus Depot",
        "public_transport": "station"
      },
      "geometry": {
        "type": "Point",
        "coordinates": [
          79.9111586,
          6.8647897
        ]
      },
      "id": "node/2071095588"
    },
    {
      "type": "Feature",
      "properties": {
        "@id": "node/2085401641",
        "amenity": "parking",
        "capacity": "5",
        "name": "Bawa Gardens",
        "operator": "Private",
        "parking": "surface"
      },
      "geometry": {
        "type": "Point",
        "coordinates": [
          80.0377044,
          6.4570612
        ]
      },
      "id": "node/2085401641"
    },
    {
      "type": "Feature",
      "properties": {
        "@id": "node/2093145092",
        "amenity": "bus_station",
        "bus": "yes",
        "name": "Maharagama-Nugegoda",
        "public_transport": "station"
      },
      "geometry": {
        "type": "Point",
        "coordinates": [
          79.9258732,
          6.8445612
        ]
      },
      "id": "node/2093145092"
    },
    {
      "type": "Feature",
      "properties": {
        "@id": "node/2093145103",
        "amenity": "bus_station",
        "bus": "yes",
        "name": "Maharagama-Moratuwa",
        "public_transport": "station"
      },
      "geometry": {
        "type": "Point",
        "coordinates": [
          79.9260878,
          6.845243
        ]
      },
      "id": "node/2093145103"
    },
    {
      "type": "Feature",
      "properties": {
        "@id": "node/2093145111",
        "amenity": "bus_station",
        "bus": "yes",
        "name": "Maharagama-Piliyandala",
        "public_transport": "station"
      },
      "geometry": {
        "type": "Point",
        "coordinates": [
          79.9260121,
          6.8444728
        ]
      },
      "id": "node/2093145111"
    },
    {
      "type": "Feature",
      "properties": {
        "@id": "node/2096464851",
        "amenity": "bus_station",
        "bus": "yes",
        "name": "Wellampityia Bus station",
        "public_transport": "station"
      },
      "geometry": {
        "type": "Point",
        "coordinates": [
          79.8964948,
          6.9370601
        ]
      },
      "id": "node/2096464851"
    },
    {
      "type": "Feature",
      "properties": {
        "@id": "node/2100972645",
        "amenity": "parking",
        "name:en": "Galawila car park"
      },
      "geometry": {
        "type": "Point",
        "coordinates": [
          79.9914344,
          6.8470219
        ]
      },
      "id": "node/2100972645"
    },
    {
      "type": "Feature",
      "properties": {
        "@id": "node/2142229459",
        "amenity": "bus_station",
        "name": "Taladuwa"
      },
      "geometry": {
        "type": "Point",
        "coordinates": [
          79.842081,
          7.2036857
        ]
      },
      "id": "node/2142229459"
    },
    {
      "type": "Feature",
      "properties": {
        "@id": "node/2143718070",
        "access": "customers",
        "amenity": "parking",
        "fee": "no",
        "parking": "surface"
      },
      "geometry": {
        "type": "Point",
        "coordinates": [
          79.8896471,
          6.9106101
        ]
      },
      "id": "node/2143718070"
    },
    {
      "type": "Feature",
      "properties": {
        "@id": "node/2143724567",
        "amenity": "parking"
      },
      "geometry": {
        "type": "Point",
        "coordinates": [
          79.8717219,
          6.9258407
        ]
      },
      "id": "node/2143724567"
    },
    {
      "type": "Feature",
      "properties": {
        "@id": "node/2143724568",
        "amenity": "parking"
      },
      "geometry": {
        "type": "Point",
        "coordinates": [
          79.8698954,
          6.9253933
        ]
      },
      "id": "node/2143724568"
    },
    {
      "type": "Feature",
      "properties": {
        "@id": "node/2143724572",
        "amenity": "parking"
      },
      "geometry": {
        "type": "Point",
        "coordinates": [
          79.8682941,
          6.9245839
        ]
      },
      "id": "node/2143724572"
    },
    {
      "type": "Feature",
      "properties": {
        "@id": "node/2143730214",
        "amenity": "parking",
        "parking": "street_side"
      },
      "geometry": {
        "type": "Point",
        "coordinates": [
          79.8587561,
          6.9202517
        ]
      },
      "id": "node/2143730214"
    },
    {
      "type": "Feature",
      "properties": {
        "@id": "node/2145039124",
        "amenity": "parking"
      },
      "geometry": {
        "type": "Point",
        "coordinates": [
          79.8769368,
          6.9159693
        ]
      },
      "id": "node/2145039124"
    },
    {
      "type": "Feature",
      "properties": {
        "@id": "node/2145049307",
        "amenity": "parking",
        "parking": "street_side"
      },
      "geometry": {
        "type": "Point",
        "coordinates": [
          79.8753721,
          6.9174225
        ]
      },
      "id": "node/2145049307"
    },
    {
      "type": "Feature",
      "properties": {
        "@id": "node/2146223782",
        "amenity": "bus_station",
        "bus": "yes",
        "name": "Kuruwita Bus Stand",
        "public_transport": "station"
      },
      "geometry": {
        "type": "Point",
        "coordinates": [
          80.3672592,
          6.7755132
        ]
      },
      "id": "node/2146223782"
    },
    {
      "type": "Feature",
      "properties": {
        "@id": "node/2151514566",
        "amenity": "bus_station",
        "name": "Ratnapura CTB Depot"
      },
      "geometry": {
        "type": "Point",
        "coordinates": [
          80.410543,
          6.6848557
        ]
      },
      "id": "node/2151514566"
    },
    {
      "type": "Feature",
      "properties": {
        "@id": "node/2152800180",
        "addr:city": "Kahawatta",
        "addr:street": "Kahawatta-Opanayake Road",
        "amenity": "bus_station",
        "name": "Bus Stand"
      },
      "geometry": {
        "type": "Point",
        "coordinates": [
          80.5734952,
          6.5830946
        ]
      },
      "id": "node/2152800180"
    },
    {
      "type": "Feature",
      "properties": {
        "@id": "node/2152832340",
        "amenity": "bus_station",
        "name": "Killinochchi"
      },
      "geometry": {
        "type": "Point",
        "coordinates": [
          80.4066967,
          9.3833191
        ]
      },
      "id": "node/2152832340"
    },
    {
      "type": "Feature",
      "properties": {
        "@id": "node/2152938728",
        "amenity": "parking",
        "parking": "surface"
      },
      "geometry": {
        "type": "Point",
        "coordinates": [
          79.9265968,
          6.8682379
        ]
      },
      "id": "node/2152938728"
    },
    {
      "type": "Feature",
      "properties": {
        "@id": "node/2155827432",
        "amenity": "bus_station",
        "name": "Neluwa Bus Station"
      },
      "geometry": {
        "type": "Point",
        "coordinates": [
          80.3613968,
          6.3780225
        ]
      },
      "id": "node/2155827432"
    },
    {
      "type": "Feature",
      "properties": {
        "@id": "node/2164965826",
        "addr:postcode": "81400",
        "amenity": "bus_station",
        "bus": "yes",
        "name": "Akuressa",
        "public_transport": "station"
      },
      "geometry": {
        "type": "Point",
        "coordinates": [
          80.4777065,
          6.0995623
        ]
      },
      "id": "node/2164965826"
    },
    {
      "type": "Feature",
      "properties": {
        "@id": "node/2165130859",
        "amenity": "bus_station",
        "internet_access": "no",
        "name": "Kamburupitiya Bus Station"
      },
      "geometry": {
        "type": "Point",
        "coordinates": [
          80.5666906,
          6.0817162
        ]
      },
      "id": "node/2165130859"
    },
    {
      "type": "Feature",
      "properties": {
        "@id": "node/2176977987",
        "addr:city": "Deniyaya",
        "addr:street": "Deniyaya-Wiharahena Road",
        "amenity": "bus_station",
        "description": "Bus 60 to Colombo (Bastian Mawatha – Fort) over Kalutura, Galle and Imaduwa departs here.",
        "internet_access": "no",
        "name": "Deniyaya Bus Station"
      },
      "geometry": {
        "type": "Point",
        "coordinates": [
          80.560347,
          6.3422812
        ]
      },
      "id": "node/2176977987"
    },
    {
      "type": "Feature",
      "properties": {
        "@id": "node/2196976335",
        "amenity": "bus_station",
        "name": "Negombo Bus Depot"
      },
      "geometry": {
        "type": "Point",
        "coordinates": [
          79.8514419,
          7.2216047
        ]
      },
      "id": "node/2196976335"
    },
    {
      "type": "Feature",
      "properties": {
        "@id": "node/2279222357",
        "amenity": "bus_station",
        "name": "SLTB Depot"
      },
      "geometry": {
        "type": "Point",
        "coordinates": [
          81.0328745,
          7.9296751
        ]
      },
      "id": "node/2279222357"
    },
    {
      "type": "Feature",
      "properties": {
        "@id": "node/2285443802",
        "amenity": "bus_station",
        "name": "Hingurakgoda Private Bus Stand"
      },
      "geometry": {
        "type": "Point",
        "coordinates": [
          80.9513166,
          8.0406831
        ]
      },
      "id": "node/2285443802"
    },
    {
      "type": "Feature",
      "properties": {
        "@id": "node/2334181612",
        "amenity": "bus_station",
        "name": "Teldeniya CTB Depot"
      },
      "geometry": {
        "type": "Point",
        "coordinates": [
          80.7585462,
          7.3148182
        ]
      },
      "id": "node/2334181612"
    },
    {
      "type": "Feature",
      "properties": {
        "@id": "node/2335072238",
        "amenity": "bus_station",
        "name": "Digana"
      },
      "geometry": {
        "type": "Point",
        "coordinates": [
          80.7354898,
          7.2952739
        ]
      },
      "id": "node/2335072238"
    },
    {
      "type": "Feature",
      "properties": {
        "@id": "node/2339163887",
        "amenity": "parking",
        "capacity": "15",
        "name": "Car & Motorcycle Park",
        "parking": "surface"
      },
      "geometry": {
        "type": "Point",
        "coordinates": [
          79.9289496,
          6.6631927
        ]
      },
      "id": "node/2339163887"
    },
    {
      "type": "Feature",
      "properties": {
        "@id": "node/2339267135",
        "amenity": "parking",
        "capacity": "10",
        "name": "HNB Car Park",
        "parking": "surface"
      },
      "geometry": {
        "type": "Point",
        "coordinates": [
          79.9070601,
          6.714615
        ]
      },
      "id": "node/2339267135"
    },
    {
      "type": "Feature",
      "properties": {
        "@id": "node/2340215068",
        "alt_name": "Bus Stand",
        "amenity": "bus_station",
        "name": "Mawanella Bus Station"
      },
      "geometry": {
        "type": "Point",
        "coordinates": [
          80.446929,
          7.252405
        ]
      },
      "id": "node/2340215068"
    },
    {
      "type": "Feature",
      "properties": {
        "@id": "node/2343140806",
        "amenity": "bus_station",
        "name": "Menikhinna"
      },
      "geometry": {
        "type": "Point",
        "coordinates": [
          80.7020152,
          7.3155217
        ]
      },
      "id": "node/2343140806"
    },
    {
      "type": "Feature",
      "properties": {
        "@id": "node/2347304116",
        "amenity": "bus_station",
        "name": "Pugoda Bus Station‎"
      },
      "geometry": {
        "type": "Point",
        "coordinates": [
          80.1206628,
          6.9763026
        ]
      },
      "id": "node/2347304116"
    },
    {
      "type": "Feature",
      "properties": {
        "@id": "node/2361349574",
        "amenity": "bus_station",
        "name": "Debathgama"
      },
      "geometry": {
        "type": "Point",
        "coordinates": [
          80.4201347,
          7.1721631
        ]
      },
      "id": "node/2361349574"
    },
    {
      "type": "Feature",
      "properties": {
        "@id": "node/2407558285",
        "amenity": "bus_station",
        "name": "Weliweriya"
      },
      "geometry": {
        "type": "Point",
        "coordinates": [
          80.0282845,
          7.0324394
        ]
      },
      "id": "node/2407558285"
    },
    {
      "type": "Feature",
      "properties": {
        "@id": "node/2407690010",
        "amenity": "bus_station",
        "bus": "yes",
        "name": "Kirillawala",
        "public_transport": "station"
      },
      "geometry": {
        "type": "Point",
        "coordinates": [
          79.9906539,
          7.0345428
        ]
      },
      "id": "node/2407690010"
    },
    {
      "type": "Feature",
      "properties": {
        "@id": "node/2411173064",
        "amenity": "parking",
        "name": "Aluthnuwara Pilgrim's Car Park",
        "parking": "surface"
      },
      "geometry": {
        "type": "Point",
        "coordinates": [
          80.4852255,
          7.2290015
        ]
      },
      "id": "node/2411173064"
    },
    {
      "type": "Feature",
      "properties": {
        "@id": "node/2418605292",
        "amenity": "bus_station",
        "name": "Monaragala Bus Stand"
      },
      "geometry": {
        "type": "Point",
        "coordinates": [
          81.3519393,
          6.8717933
        ]
      },
      "id": "node/2418605292"
    },
    {
      "type": "Feature",
      "properties": {
        "@id": "node/2426388323",
        "amenity": "bus_station",
        "name": "Ingiriya",
        "wheelchair": "yes"
      },
      "geometry": {
        "type": "Point",
        "coordinates": [
          80.1754635,
          6.744272
        ]
      },
      "id": "node/2426388323"
    },
    {
      "type": "Feature",
      "properties": {
        "@id": "node/2634774644",
        "amenity": "bus_station",
        "bus": "yes",
        "name": "Mathugama CTB Bus Stand",
        "public_transport": "station"
      },
      "geometry": {
        "type": "Point",
        "coordinates": [
          80.1148423,
          6.5222765
        ]
      },
      "id": "node/2634774644"
    },
    {
      "type": "Feature",
      "properties": {
        "@id": "node/2648621439",
        "name": "Kelaniya",
        "name:ur": "کلنیہ",
        "public_transport": "station",
        "railway": "station"
      },
      "geometry": {
        "type": "Point",
        "coordinates": [
          79.8944725,
          6.9610592
        ]
      },
      "id": "node/2648621439"
    },
    {
      "type": "Feature",
      "properties": {
        "@id": "node/2671478496",
        "name": "Killinochchi",
        "railway": "station"
      },
      "geometry": {
        "type": "Point",
        "coordinates": [
          80.4059976,
          9.3857084
        ]
      },
      "id": "node/2671478496"
    },
    {
      "type": "Feature",
      "properties": {
        "@id": "node/2671478503",
        "name": "Madhu Road",
        "railway": "station",
        "wikidata": "Q15964631"
      },
      "geometry": {
        "type": "Point",
        "coordinates": [
          80.1501633,
          8.7738352
        ]
      },
      "id": "node/2671478503"
    },
    {
      "type": "Feature",
      "properties": {
        "@id": "node/2681885360",
        "name": "Egoda Uyana",
        "network": "Coastal Line",
        "operator": "Sri Lanka Railways",
        "public_transport": "station",
        "railway": "station",
        "train": "yes"
      },
      "geometry": {
        "type": "Point",
        "coordinates": [
          79.8916572,
          6.7429318
        ]
      },
      "id": "node/2681885360"
    },
    {
      "type": "Feature",
      "properties": {
        "@id": "node/2681885364",
        "name": "Moratuwa",
        "network": "Coastal Line",
        "operator": "Sri Lanka Railways",
        "public_transport": "station",
        "railway": "station",
        "train": "yes"
      },
      "geometry": {
        "type": "Point",
        "coordinates": [
          79.8817806,
          6.7743504
        ]
      },
      "id": "node/2681885364"
    },
    {
      "type": "Feature",
      "properties": {
        "@id": "node/2734695882",
        "amenity": "parking"
      },
      "geometry": {
        "type": "Point",
        "coordinates": [
          80.8163089,
          6.4262951
        ]
      },
      "id": "node/2734695882"
    },
    {
      "type": "Feature",
      "properties": {
        "@id": "node/2837565658",
        "name": "Senarathgama",
        "railway": "station"
      },
      "geometry": {
        "type": "Point",
        "coordinates": [
          80.2777081,
          8.0858801
        ]
      },
      "id": "node/2837565658"
    },
    {
      "type": "Feature",
      "properties": {
        "@id": "node/2840857132",
        "amenity": "parking"
      },
      "geometry": {
        "type": "Point",
        "coordinates": [
          80.627357,
          7.2920627
        ]
      },
      "id": "node/2840857132"
    },